%time,field.header.seq,field.header.stamp,field.header.frame_id,field.child_frame_id,field.pose.pose.position.x,field.pose.pose.position.y,field.pose.pose.position.z,field.pose.pose.orientation.x,field.pose.pose.orientation.y,field.pose.pose.orientation.z,field.pose.pose.orientation.w,field.pose.covariance0,field.pose.covariance1,field.pose.covariance2,field.pose.covariance3,field.pose.covariance4,field.pose.covariance5,field.pose.covariance6,field.pose.covariance7,field.pose.covariance8,field.pose.covariance9,field.pose.covariance10,field.pose.covariance11,field.pose.covariance12,field.pose.covariance13,field.pose.covariance14,field.pose.covariance15,field.pose.covariance16,field.pose.covariance17,field.pose.covariance18,field.pose.covariance19,field.pose.covariance20,field.pose.covariance21,field.pose.covariance22,field.pose.covariance23,field.pose.covariance24,field.pose.covariance25,field.pose.covariance26,field.pose.covariance27,field.pose.covariance28,field.pose.covariance29,field.pose.covariance30,field.pose.covariance31,field.pose.covariance32,field.pose.covariance33,field.pose.covariance34,field.pose.covariance35,field.twist.twist.linear.x,field.twist.twist.linear.y,field.twist.twist.linear.z,field.twist.twist.angular.x,field.twist.twist.angular.y,field.twist.twist.angular.z,field.twist.covariance0,field.twist.covariance1,field.twist.covariance2,field.twist.covariance3,field.twist.covariance4,field.twist.covariance5,field.twist.covariance6,field.twist.covariance7,field.twist.covariance8,field.twist.covariance9,field.twist.covariance10,field.twist.covariance11,field.twist.covariance12,field.twist.covariance13,field.twist.covariance14,field.twist.covariance15,field.twist.covariance16,field.twist.covariance17,field.twist.covariance18,field.twist.covariance19,field.twist.covariance20,field.twist.covariance21,field.twist.covariance22,field.twist.covariance23,field.twist.covariance24,field.twist.covariance25,field.twist.covariance26,field.twist.covariance27,field.twist.covariance28,field.twist.covariance29,field.twist.covariance30,field.twist.covariance31,field.twist.covariance32,field.twist.covariance33,field.twist.covariance34,field.twist.covariance35
145060000000,4345,145060000000,odom,base_footprint,-0.620996159841,1.29716862511,-0.00100831338355,-0.00158070494265,-0.000193243160195,0.992750156654,-0.120185650108,1e-05,0.0,0.0,0.0,0.0,0.0,0.0,1e-05,0.0,0.0,0.0,0.0,0.0,0.0,1e+12,0.0,0.0,0.0,0.0,0.0,0.0,1e+12,0.0,0.0,0.0,0.0,0.0,0.0,1e+12,0.0,0.0,0.0,0.0,0.0,0.0,0.001,-4.4748712926e-05,3.01505667263e-07,0.0,0.0,0.0,0.00113747489205,0.0,0.0,0.0,0.0,0.0,0.0,0.0,0.0,0.0,0.0,0.0,0.0,0.0,0.0,0.0,0.0,0.0,0.0,0.0,0.0,0.0,0.0,0.0,0.0,0.0,0.0,0.0,0.0,0.0,0.0,0.0,0.0,0.0,0.0,0.0,0.0
145093000000,4346,145093000000,odom,base_footprint,-0.620994796587,1.29716897367,-0.00100831348467,-0.00158070207485,-0.000193269142139,0.992748192891,-0.120201869947,1e-05,0.0,0.0,0.0,0.0,0.0,0.0,1e-05,0.0,0.0,0.0,0.0,0.0,0.0,1e+12,0.0,0.0,0.0,0.0,0.0,0.0,1e+12,0.0,0.0,0.0,0.0,0.0,0.0,1e+12,0.0,0.0,0.0,0.0,0.0,0.0,0.001,-4.47296032042e-05,3.01227307119e-07,0.0,0.0,0.0,0.00113712094132,0.0,0.0,0.0,0.0,0.0,0.0,0.0,0.0,0.0,0.0,0.0,0.0,0.0,0.0,0.0,0.0,0.0,0.0,0.0,0.0,0.0,0.0,0.0,0.0,0.0,0.0,0.0,0.0,0.0,0.0,0.0,0.0,0.0,0.0,0.0,0.0
145127000000,4347,145127000000,odom,base_footprint,-0.620993392678,1.29716933268,-0.00100831358879,-0.00158069912056,-0.000193295902714,0.992746169993,-0.120218575895,1e-05,0.0,0.0,0.0,0.0,0.0,0.0,1e-05,0.0,0.0,0.0,0.0,0.0,0.0,1e+12,0.0,0.0,0.0,0.0,0.0,0.0,1e+12,0.0,0.0,0.0,0.0,0.0,0.0,1e+12,0.0,0.0,0.0,0.0,0.0,0.0,0.001,-4.47099137605e-05,3.00940296188e-07,0.0,0.0,0.0,0.0011367562987,0.0,0.0,0.0,0.0,0.0,0.0,0.0,0.0,0.0,0.0,0.0,0.0,0.0,0.0,0.0,0.0,0.0,0.0,0.0,0.0,0.0,0.0,0.0,0.0,0.0,0.0,0.0,0.0,0.0,0.0,0.0,0.0,0.0,0.0,0.0,0.0
145160000000,4348,145160000000,odom,base_footprint,-0.620992030696,1.29716968102,-0.00100831368977,-0.00158069625353,-0.000193321867777,0.992744206954,-0.120234785252,1e-05,0.0,0.0,0.0,0.0,0.0,0.0,1e-05,0.0,0.0,0.0,0.0,0.0,0.0,1e+12,0.0,0.0,0.0,0.0,0.0,0.0,1e+12,0.0,0.0,0.0,0.0,0.0,0.0,1e+12,0.0,0.0,0.0,0.0,0.0,0.0,0.001,-4.46907984196e-05,3.00663142093e-07,0.0,0.0,0.0,0.00113640245626,0.0,0.0,0.0,0.0,0.0,0.0,0.0,0.0,0.0,0.0,0.0,0.0,0.0,0.0,0.0,0.0,0.0,0.0,0.0,0.0,0.0,0.0,0.0,0.0,0.0,0.0,0.0,0.0,0.0,0.0,0.0,0.0,0.0,0.0,0.0,0.0
145193000000,4349,145193000000,odom,base_footprint,-0.62099066934,1.29717002926,-0.00100831379069,-0.00158069338689,-0.000193347824524,0.992742244272,-0.120250989447,1e-05,0.0,0.0,0.0,0.0,0.0,0.0,1e-05,0.0,0.0,0.0,0.0,0.0,0.0,1e+12,0.0,0.0,0.0,0.0,0.0,0.0,1e+12,0.0,0.0,0.0,0.0,0.0,0.0,1e+12,0.0,0.0,0.0,0.0,0.0,0.0,0.001,-4.4671673165e-05,3.00386535187e-07,0.0,0.0,0.0,0.00113604868473,0.0,0.0,0.0,0.0,0.0,0.0,0.0,0.0,0.0,0.0,0.0,0.0,0.0,0.0,0.0,0.0,0.0,0.0,0.0,0.0,0.0,0.0,0.0,0.0,0.0,0.0,0.0,0.0,0.0,0.0,0.0,0.0,0.0,0.0,0.0,0.0
145227000000,4350,145227000000,odom,base_footprint,-0.620989267386,1.29717038793,-0.0010083138946,-0.00158069043379,-0.000193374559144,0.992740222487,-0.120267679281,1e-05,0.0,0.0,0.0,0.0,0.0,0.0,1e-05,0.0,0.0,0.0,0.0,0.0,0.0,1e+12,0.0,0.0,0.0,0.0,0.0,0.0,1e+12,0.0,0.0,0.0,0.0,0.0,0.0,1e+12,0.0,0.0,0.0,0.0,0.0,0.0,0.001,-4.46519621895e-05,3.00101264619e-07,0.0,0.0,0.0,0.00113568425483,0.0,0.0,0.0,0.0,0.0,0.0,0.0,0.0,0.0,0.0,0.0,0.0,0.0,0.0,0.0,0.0,0.0,0.0,0.0,0.0,0.0,0.0,0.0,0.0,0.0,0.0,0.0,0.0,0.0,0.0,0.0,0.0,0.0,0.0,0.0,0.0
145260000000,4351,145260000000,odom,base_footprint,-0.620987907302,1.29717073595,-0.00100831399538,-0.00158068756794,-0.000193400499015,0.992738260529,-0.120283873001,1e-05,0.0,0.0,0.0,0.0,0.0,0.0,1e-05,0.0,0.0,0.0,0.0,0.0,0.0,1e+12,0.0,0.0,0.0,0.0,0.0,0.0,1e+12,0.0,0.0,0.0,0.0,0.0,0.0,1e+12,0.0,0.0,0.0,0.0,0.0,0.0,0.001,-4.46328253346e-05,2.99826521934e-07,0.0,0.0,0.0,0.00113533060653,0.0,0.0,0.0,0.0,0.0,0.0,0.0,0.0,0.0,0.0,0.0,0.0,0.0,0.0,0.0,0.0,0.0,0.0,0.0,0.0,0.0,0.0,0.0,0.0,0.0,0.0,0.0,0.0,0.0,0.0,0.0,0.0,0.0,0.0,0.0,0.0
145293000000,4352,145293000000,odom,base_footprint,-0.620986547845,1.29717108386,-0.0010083140961,-0.00158068470247,-0.000193426430577,0.992736298928,-0.120300061563,1e-05,0.0,0.0,0.0,0.0,0.0,0.0,1e-05,0.0,0.0,0.0,0.0,0.0,0.0,1e+12,0.0,0.0,0.0,0.0,0.0,0.0,1e+12,0.0,0.0,0.0,0.0,0.0,0.0,1e+12,0.0,0.0,0.0,0.0,0.0,0.0,0.001,-4.46136819348e-05,2.99551690692e-07,0.0,0.0,0.0,0.00113497702315,0.0,0.0,0.0,0.0,0.0,0.0,0.0,0.0,0.0,0.0,0.0,0.0,0.0,0.0,0.0,0.0,0.0,0.0,0.0,0.0,0.0,0.0,0.0,0.0,0.0,0.0,0.0,0.0,0.0,0.0,0.0,0.0,0.0,0.0,0.0,0.0
145327000000,4353,145327000000,odom,base_footprint,-0.620985147849,1.2971714422,-0.00100831419981,-0.00158068175056,-0.000193453139254,0.992734278259,-0.120316735293,1e-05,0.0,0.0,0.0,0.0,0.0,0.0,1e-05,0.0,0.0,0.0,0.0,0.0,0.0,1e+12,0.0,0.0,0.0,0.0,0.0,0.0,1e+12,0.0,0.0,0.0,0.0,0.0,0.0,1e+12,0.0,0.0,0.0,0.0,0.0,0.0,0.001,-4.45939542412e-05,2.99267608061e-07,0.0,0.0,0.0,0.00113461279173,0.0,0.0,0.0,0.0,0.0,0.0,0.0,0.0,0.0,0.0,0.0,0.0,0.0,0.0,0.0,0.0,0.0,0.0,0.0,0.0,0.0,0.0,0.0,0.0,0.0,0.0,0.0,0.0,0.0,0.0,0.0,0.0,0.0,0.0,0.0,0.0
145360000000,4354,145360000000,odom,base_footprint,-0.620983789665,1.29717178989,-0.00100831430039,-0.00158067888588,-0.000193479053951,0.992732317383,-0.120332913387,1e-05,0.0,0.0,0.0,0.0,0.0,0.0,1e-05,0.0,0.0,0.0,0.0,0.0,0.0,1e+12,0.0,0.0,0.0,0.0,0.0,0.0,1e+12,0.0,0.0,0.0,0.0,0.0,0.0,1e+12,0.0,0.0,0.0,0.0,0.0,0.0,0.001,-4.45747986705e-05,2.98983613753e-07,0.0,0.0,0.0,0.00113425933744,0.0,0.0,0.0,0.0,0.0,0.0,0.0,0.0,0.0,0.0,0.0,0.0,0.0,0.0,0.0,0.0,0.0,0.0,0.0,0.0,0.0,0.0,0.0,0.0,0.0,0.0,0.0,0.0,0.0,0.0,0.0,0.0,0.0,0.0,0.0,0.0
145393000000,4355,145393000000,odom,base_footprint,-0.620982432108,1.29717213747,-0.00100831440091,-0.00158067602157,-0.000193504960343,0.992730356864,-0.120349086325,1e-05,0.0,0.0,0.0,0.0,0.0,0.0,1e-05,0.0,0.0,0.0,0.0,0.0,0.0,1e+12,0.0,0.0,0.0,0.0,0.0,0.0,1e+12,0.0,0.0,0.0,0.0,0.0,0.0,1e+12,0.0,0.0,0.0,0.0,0.0,0.0,0.001,-4.45556366726e-05,2.98710555623e-07,0.0,0.0,0.0,0.0011339059469,0.0,0.0,0.0,0.0,0.0,0.0,0.0,0.0,0.0,0.0,0.0,0.0,0.0,0.0,0.0,0.0,0.0,0.0,0.0,0.0,0.0,0.0,0.0,0.0,0.0,0.0,0.0,0.0,0.0,0.0,0.0,0.0,0.0,0.0,0.0,0.0
145427000000,4356,145427000000,odom,base_footprint,-0.62098103407,1.29717249547,-0.00100831450441,-0.00158067307089,-0.000193531643073,0.99272833731,-0.120365743963,1e-05,0.0,0.0,0.0,0.0,0.0,0.0,1e-05,0.0,0.0,0.0,0.0,0.0,0.0,1e+12,0.0,0.0,0.0,0.0,0.0,0.0,1e+12,0.0,0.0,0.0,0.0,0.0,0.0,1e+12,0.0,0.0,0.0,0.0,0.0,0.0,0.001,-4.45358941889e-05,2.98427436612e-07,0.0,0.0,0.0,0.00113354184545,0.0,0.0,0.0,0.0,0.0,0.0,0.0,0.0,0.0,0.0,0.0,0.0,0.0,0.0,0.0,0.0,0.0,0.0,0.0,0.0,0.0,0.0,0.0,0.0,0.0,0.0,0.0,0.0,0.0,0.0,0.0,0.0,0.0,0.0,0.0,0.0
145460000000,4357,145460000000,odom,base_footprint,-0.620979677787,1.29717284283,-0.00100831460479,-0.00158067020737,-0.000193557532599,0.992726377518,-0.12038190644,1e-05,0.0,0.0,0.0,0.0,0.0,0.0,1e-05,0.0,0.0,0.0,0.0,0.0,0.0,1e+12,0.0,0.0,0.0,0.0,0.0,0.0,1e+12,0.0,0.0,0.0,0.0,0.0,0.0,1e+12,0.0,0.0,0.0,0.0,0.0,0.0,0.001,-4.45167221123e-05,2.98143750542e-07,0.0,0.0,0.0,0.00113318854891,0.0,0.0,0.0,0.0,0.0,0.0,0.0,0.0,0.0,0.0,0.0,0.0,0.0,0.0,0.0,0.0,0.0,0.0,0.0,0.0,0.0,0.0,0.0,0.0,0.0,0.0,0.0,0.0,0.0,0.0,0.0,0.0,0.0,0.0,0.0,0.0
145493000000,4358,145493000000,odom,base_footprint,-0.620978322132,1.29717319009,-0.00100831470511,-0.00158066734424,-0.000193583413822,0.992724418083,-0.120398063765,1e-05,0.0,0.0,0.0,0.0,0.0,0.0,1e-05,0.0,0.0,0.0,0.0,0.0,0.0,1e+12,0.0,0.0,0.0,0.0,0.0,0.0,1e+12,0.0,0.0,0.0,0.0,0.0,0.0,1e+12,0.0,0.0,0.0,0.0,0.0,0.0,0.001,-4.44975431797e-05,2.97870877799e-07,0.0,0.0,0.0,0.00113283532113,0.0,0.0,0.0,0.0,0.0,0.0,0.0,0.0,0.0,0.0,0.0,0.0,0.0,0.0,0.0,0.0,0.0,0.0,0.0,0.0,0.0,0.0,0.0,0.0,0.0,0.0,0.0,0.0,0.0,0.0,0.0,0.0,0.0,0.0,0.0,0.0
145527000000,4359,145527000000,odom,base_footprint,-0.620976926053,1.29717354775,-0.0010083148084,-0.00158066439475,-0.000193610070645,0.992722399645,-0.120414705321,1e-05,0.0,0.0,0.0,0.0,0.0,0.0,1e-05,0.0,0.0,0.0,0.0,0.0,0.0,1e+12,0.0,0.0,0.0,0.0,0.0,0.0,1e+12,0.0,0.0,0.0,0.0,0.0,0.0,1e+12,0.0,0.0,0.0,0.0,0.0,0.0,0.001,-4.44777776155e-05,2.9758947968e-07,0.0,0.0,0.0,0.00113247144758,0.0,0.0,0.0,0.0,0.0,0.0,0.0,0.0,0.0,0.0,0.0,0.0,0.0,0.0,0.0,0.0,0.0,0.0,0.0,0.0,0.0,0.0,0.0,0.0,0.0,0.0,0.0,0.0,0.0,0.0,0.0,0.0,0.0,0.0,0.0,0.0
145560000000,4360,145560000000,odom,base_footprint,-0.620975571673,1.29717389478,-0.00100831490859,-0.0015806615324,-0.000193635935023,0.992720440937,-0.120430852191,1e-05,0.0,0.0,0.0,0.0,0.0,0.0,1e-05,0.0,0.0,0.0,0.0,0.0,0.0,1e+12,0.0,0.0,0.0,0.0,0.0,0.0,1e+12,0.0,0.0,0.0,0.0,0.0,0.0,1e+12,0.0,0.0,0.0,0.0,0.0,0.0,0.001,-4.44585875304e-05,2.97307576863e-07,0.0,0.0,0.0,0.00113211834225,0.0,0.0,0.0,0.0,0.0,0.0,0.0,0.0,0.0,0.0,0.0,0.0,0.0,0.0,0.0,0.0,0.0,0.0,0.0,0.0,0.0,0.0,0.0,0.0,0.0,0.0,0.0,0.0,0.0,0.0,0.0,0.0,0.0,0.0,0.0,0.0
145593000000,4361,145593000000,odom,base_footprint,-0.620974217921,1.29717424171,-0.00100831500871,-0.00158065867044,-0.000193661791108,0.992718482587,-0.120446993915,1e-05,0.0,0.0,0.0,0.0,0.0,0.0,1e-05,0.0,0.0,0.0,0.0,0.0,0.0,1e+12,0.0,0.0,0.0,0.0,0.0,0.0,1e+12,0.0,0.0,0.0,0.0,0.0,0.0,1e+12,0.0,0.0,0.0,0.0,0.0,0.0,0.001,-4.44393910216e-05,2.97026217762e-07,0.0,0.0,0.0,0.0011317653036,0.0,0.0,0.0,0.0,0.0,0.0,0.0,0.0,0.0,0.0,0.0,0.0,0.0,0.0,0.0,0.0,0.0,0.0,0.0,0.0,0.0,0.0,0.0,0.0,0.0,0.0,0.0,0.0,0.0,0.0,0.0,0.0,0.0,0.0,0.0,0.0
145627000000,4362,145627000000,odom,base_footprint,-0.620972823803,1.29717459903,-0.00100831511179,-0.00158065572216,-0.000193688422035,0.992716465268,-0.120463619398,1e-05,0.0,0.0,0.0,0.0,0.0,0.0,1e-05,0.0,0.0,0.0,0.0,0.0,0.0,1e+12,0.0,0.0,0.0,0.0,0.0,0.0,1e+12,0.0,0.0,0.0,0.0,0.0,0.0,1e+12,0.0,0.0,0.0,0.0,0.0,0.0,0.001,-4.4419605768e-05,2.96745851907e-07,0.0,0.0,0.0,0.00113140163387,0.0,0.0,0.0,0.0,0.0,0.0,0.0,0.0,0.0,0.0,0.0,0.0,0.0,0.0,0.0,0.0,0.0,0.0,0.0,0.0,0.0,0.0,0.0,0.0,0.0,0.0,0.0,0.0,0.0,0.0,0.0,0.0,0.0,0.0,0.0,0.0
145660000000,4363,145660000000,odom,base_footprint,-0.620971471327,1.29717494573,-0.00100831521182,-0.00158065286114,-0.000193714261093,0.992714507645,-0.120479750673,1e-05,0.0,0.0,0.0,0.0,0.0,0.0,1e-05,0.0,0.0,0.0,0.0,0.0,0.0,1e+12,0.0,0.0,0.0,0.0,0.0,0.0,1e+12,0.0,0.0,0.0,0.0,0.0,0.0,1e+12,0.0,0.0,0.0,0.0,0.0,0.0,0.001,-4.44003992141e-05,2.96447964852e-07,0.0,0.0,0.0,0.00113104868499,0.0,0.0,0.0,0.0,0.0,0.0,0.0,0.0,0.0,0.0,0.0,0.0,0.0,0.0,0.0,0.0,0.0,0.0,0.0,0.0,0.0,0.0,0.0,0.0,0.0,0.0,0.0,0.0,0.0,0.0,0.0,0.0,0.0,0.0,0.0,0.0
145693000000,4364,145693000000,odom,base_footprint,-0.62097011948,1.29717529233,-0.00100831531178,-0.00158065000052,-0.000193740091852,0.992712550381,-0.120495876805,1e-05,0.0,0.0,0.0,0.0,0.0,0.0,1e-05,0.0,0.0,0.0,0.0,0.0,0.0,1e+12,0.0,0.0,0.0,0.0,0.0,0.0,1e+12,0.0,0.0,0.0,0.0,0.0,0.0,1e+12,0.0,0.0,0.0,0.0,0.0,0.0,0.001,-4.43811841721e-05,2.96148289138e-07,0.0,0.0,0.0,0.00113069581975,0.0,0.0,0.0,0.0,0.0,0.0,0.0,0.0,0.0,0.0,0.0,0.0,0.0,0.0,0.0,0.0,0.0,0.0,0.0,0.0,0.0,0.0,0.0,0.0,0.0,0.0,0.0,0.0,0.0,0.0,0.0,0.0,0.0,0.0,0.0,0.0
145727000000,4365,145727000000,odom,base_footprint,-0.620968727325,1.29717564931,-0.00100831541471,-0.00158064705362,-0.000193766696692,0.99271053418,-0.120512486228,1e-05,0.0,0.0,0.0,0.0,0.0,0.0,1e-05,0.0,0.0,0.0,0.0,0.0,0.0,1e+12,0.0,0.0,0.0,0.0,0.0,0.0,1e+12,0.0,0.0,0.0,0.0,0.0,0.0,1e+12,0.0,0.0,0.0,0.0,0.0,0.0,0.001,-4.43613799019e-05,2.95849134584e-07,0.0,0.0,0.0,0.001130332329,0.0,0.0,0.0,0.0,0.0,0.0,0.0,0.0,0.0,0.0,0.0,0.0,0.0,0.0,0.0,0.0,0.0,0.0,0.0,0.0,0.0,0.0,0.0,0.0,0.0,0.0,0.0,0.0,0.0,0.0,0.0,0.0,0.0,0.0,0.0,0.0
145760000000,4366,145760000000,odom,base_footprint,-0.620967376754,1.29717599568,-0.00100831551457,-0.00158064419389,-0.000193792510442,0.992708577644,-0.120528601915,1e-05,0.0,0.0,0.0,0.0,0.0,0.0,1e-05,0.0,0.0,0.0,0.0,0.0,0.0,1e+12,0.0,0.0,0.0,0.0,0.0,0.0,1e+12,0.0,0.0,0.0,0.0,0.0,0.0,1e+12,0.0,0.0,0.0,0.0,0.0,0.0,0.001,-4.43422756407e-05,2.9555480219e-07,0.0,0.0,0.0,0.00112997849472,0.0,0.0,0.0,0.0,0.0,0.0,0.0,0.0,0.0,0.0,0.0,0.0,0.0,0.0,0.0,0.0,0.0,0.0,0.0,0.0,0.0,0.0,0.0,0.0,0.0,0.0,0.0,0.0,0.0,0.0,0.0,0.0,0.0,0.0,0.0,0.0
145793000000,4367,145793000000,odom,base_footprint,-0.62096602681,1.29717634194,-0.00100831561436,-0.00158064133452,-0.0001938183158,0.992706621468,-0.120544712453,1e-05,0.0,0.0,0.0,0.0,0.0,0.0,1e-05,0.0,0.0,0.0,0.0,0.0,0.0,1e+12,0.0,0.0,0.0,0.0,0.0,0.0,1e+12,0.0,0.0,0.0,0.0,0.0,0.0,1e+12,0.0,0.0,0.0,0.0,0.0,0.0,0.001,-4.43230451152e-05,2.95260909152e-07,0.0,0.0,0.0,0.00112962544853,0.0,0.0,0.0,0.0,0.0,0.0,0.0,0.0,0.0,0.0,0.0,0.0,0.0,0.0,0.0,0.0,0.0,0.0,0.0,0.0,0.0,0.0,0.0,0.0,0.0,0.0,0.0,0.0,0.0,0.0,0.0,0.0,0.0,0.0,0.0,0.0
145827000000,4368,145827000000,odom,base_footprint,-0.620964636616,1.29717669859,-0.00100831571712,-0.00158063838897,-0.00019384489442,0.99270460639,-0.120561305811,1e-05,0.0,0.0,0.0,0.0,0.0,0.0,1e-05,0.0,0.0,0.0,0.0,0.0,0.0,1e+12,0.0,0.0,0.0,0.0,0.0,0.0,1e+12,0.0,0.0,0.0,0.0,0.0,0.0,1e+12,0.0,0.0,0.0,0.0,0.0,0.0,0.001,-4.43032972741e-05,2.94957534113e-07,0.0,0.0,0.0,0.00112926127883,0.0,0.0,0.0,0.0,0.0,0.0,0.0,0.0,0.0,0.0,0.0,0.0,0.0,0.0,0.0,0.0,0.0,0.0,0.0,0.0,0.0,0.0,0.0,0.0,0.0,0.0,0.0,0.0,0.0,0.0,0.0,0.0,0.0,0.0,0.0,0.0
145860000000,4369,145860000000,odom,base_footprint,-0.620963287948,1.29717704463,-0.00100831581677,-0.00158063553036,-0.000193870682963,0.992702650943,-0.120577405909,1e-05,0.0,0.0,0.0,0.0,0.0,0.0,1e-05,0.0,0.0,0.0,0.0,0.0,0.0,1e+12,0.0,0.0,0.0,0.0,0.0,0.0,1e+12,0.0,0.0,0.0,0.0,0.0,0.0,1e+12,0.0,0.0,0.0,0.0,0.0,0.0,0.001,-4.42841133781e-05,2.94664659571e-07,0.0,0.0,0.0,0.00112890795212,0.0,0.0,0.0,0.0,0.0,0.0,0.0,0.0,0.0,0.0,0.0,0.0,0.0,0.0,0.0,0.0,0.0,0.0,0.0,0.0,0.0,0.0,0.0,0.0,0.0,0.0,0.0,0.0,0.0,0.0,0.0,0.0,0.0,0.0,0.0,0.0
145893000000,4370,145893000000,odom,base_footprint,-0.62096193991,1.29717739056,-0.00100831591635,-0.00158063267214,-0.000193896463222,0.992700695856,-0.120593500867,1e-05,0.0,0.0,0.0,0.0,0.0,0.0,1e-05,0.0,0.0,0.0,0.0,0.0,0.0,1e+12,0.0,0.0,0.0,0.0,0.0,0.0,1e+12,0.0,0.0,0.0,0.0,0.0,0.0,1e+12,0.0,0.0,0.0,0.0,0.0,0.0,0.001,-4.42649085116e-05,2.94371579773e-07,0.0,0.0,0.0,0.00112855479814,0.0,0.0,0.0,0.0,0.0,0.0,0.0,0.0,0.0,0.0,0.0,0.0,0.0,0.0,0.0,0.0,0.0,0.0,0.0,0.0,0.0,0.0,0.0,0.0,0.0,0.0,0.0,0.0,0.0,0.0,0.0,0.0,0.0,0.0,0.0,0.0
145927000000,4371,145927000000,odom,base_footprint,-0.62096055168,1.29717774686,-0.00100831601889,-0.00158062972774,-0.000193923016024,0.9926986819,-0.120610078175,1e-05,0.0,0.0,0.0,0.0,0.0,0.0,1e-05,0.0,0.0,0.0,0.0,0.0,0.0,1e+12,0.0,0.0,0.0,0.0,0.0,0.0,1e+12,0.0,0.0,0.0,0.0,0.0,0.0,1e+12,0.0,0.0,0.0,0.0,0.0,0.0,0.001,-4.42451212623e-05,2.9406970509e-07,0.0,0.0,0.0,0.00112819096915,0.0,0.0,0.0,0.0,0.0,0.0,0.0,0.0,0.0,0.0,0.0,0.0,0.0,0.0,0.0,0.0,0.0,0.0,0.0,0.0,0.0,0.0,0.0,0.0,0.0,0.0,0.0,0.0,0.0,0.0,0.0,0.0,0.0,0.0,0.0,0.0
145959000000,4372,145959000000,odom,base_footprint,-0.620959204919,1.29717809257,-0.00100831611834,-0.00158062687032,-0.000193948779459,0.992696727543,-0.120626162699,1e-05,0.0,0.0,0.0,0.0,0.0,0.0,1e-05,0.0,0.0,0.0,0.0,0.0,0.0,1e+12,0.0,0.0,0.0,0.0,0.0,0.0,1e+12,0.0,0.0,0.0,0.0,0.0,0.0,1e+12,0.0,0.0,0.0,0.0,0.0,0.0,0.001,-4.42259120123e-05,2.93778555727e-07,0.0,0.0,0.0,0.00112783789409,0.0,0.0,0.0,0.0,0.0,0.0,0.0,0.0,0.0,0.0,0.0,0.0,0.0,0.0,0.0,0.0,0.0,0.0,0.0,0.0,0.0,0.0,0.0,0.0,0.0,0.0,0.0,0.0,0.0,0.0,0.0,0.0,0.0,0.0,0.0,0.0
145993000000,4373,145993000000,odom,base_footprint,-0.620957858787,1.29717843817,-0.00100831621773,-0.00158062401329,-0.00019397453462,0.992694773546,-0.120642242087,1e-05,0.0,0.0,0.0,0.0,0.0,0.0,1e-05,0.0,0.0,0.0,0.0,0.0,0.0,1e+12,0.0,0.0,0.0,0.0,0.0,0.0,1e+12,0.0,0.0,0.0,0.0,0.0,0.0,1e+12,0.0,0.0,0.0,0.0,0.0,0.0,0.001,-4.42066919372e-05,2.93488478603e-07,0.0,0.0,0.0,0.00112748490002,0.0,0.0,0.0,0.0,0.0,0.0,0.0,0.0,0.0,0.0,0.0,0.0,0.0,0.0,0.0,0.0,0.0,0.0,0.0,0.0,0.0,0.0,0.0,0.0,0.0,0.0,0.0,0.0,0.0,0.0,0.0,0.0,0.0,0.0,0.0,0.0
146027000000,4374,146027000000,odom,base_footprint,-0.620956472523,1.29717879413,-0.00100831632005,-0.00158062107009,-0.000194001061581,0.992692760714,-0.120658803356,1e-05,0.0,0.0,0.0,0.0,0.0,0.0,1e-05,0.0,0.0,0.0,0.0,0.0,0.0,1e+12,0.0,0.0,0.0,0.0,0.0,0.0,1e+12,0.0,0.0,0.0,0.0,0.0,0.0,1e+12,0.0,0.0,0.0,0.0,0.0,0.0,0.001,-4.4186884881e-05,2.93187803529e-07,0.0,0.0,0.0,0.00112712127947,0.0,0.0,0.0,0.0,0.0,0.0,0.0,0.0,0.0,0.0,0.0,0.0,0.0,0.0,0.0,0.0,0.0,0.0,0.0,0.0,0.0,0.0,0.0,0.0,0.0,0.0,0.0,0.0,0.0,0.0,0.0,0.0,0.0,0.0,0.0,0.0
146060000000,4375,146060000000,odom,base_footprint,-0.620955127669,1.2971791395,-0.0010083164193,-0.00158061821385,-0.000194026799938,0.992690807448,-0.120674872317,1e-05,0.0,0.0,0.0,0.0,0.0,0.0,1e-05,0.0,0.0,0.0,0.0,0.0,0.0,1e+12,0.0,0.0,0.0,0.0,0.0,0.0,1e+12,0.0,0.0,0.0,0.0,0.0,0.0,1e+12,0.0,0.0,0.0,0.0,0.0,0.0,0.001,-4.41676551178e-05,2.92898347166e-07,0.0,0.0,0.0,0.00112676841883,0.0,0.0,0.0,0.0,0.0,0.0,0.0,0.0,0.0,0.0,0.0,0.0,0.0,0.0,0.0,0.0,0.0,0.0,0.0,0.0,0.0,0.0,0.0,0.0,0.0,0.0,0.0,0.0,0.0,0.0,0.0,0.0,0.0,0.0,0.0,0.0
146093000000,4376,146093000000,odom,base_footprint,-0.620953783446,1.29717948477,-0.00100831651848,-0.001580615358,-0.000194052530022,0.992688854542,-0.120690936145,1e-05,0.0,0.0,0.0,0.0,0.0,0.0,1e-05,0.0,0.0,0.0,0.0,0.0,0.0,1e+12,0.0,0.0,0.0,0.0,0.0,0.0,1e+12,0.0,0.0,0.0,0.0,0.0,0.0,1e+12,0.0,0.0,0.0,0.0,0.0,0.0,0.001,-4.41484189009e-05,2.9260942372e-07,0.0,0.0,0.0,0.00112641562665,0.0,0.0,0.0,0.0,0.0,0.0,0.0,0.0,0.0,0.0,0.0,0.0,0.0,0.0,0.0,0.0,0.0,0.0,0.0,0.0,0.0,0.0,0.0,0.0,0.0,0.0,0.0,0.0,0.0,0.0,0.0,0.0,0.0,0.0,0.0,0.0
146127000000,4377,146127000000,odom,base_footprint,-0.620952399148,1.29717984038,-0.0010083166206,-0.00158061241601,-0.000194079031155,0.992686842834,-0.120707481387,1e-05,0.0,0.0,0.0,0.0,0.0,0.0,1e-05,0.0,0.0,0.0,0.0,0.0,0.0,1e+12,0.0,0.0,0.0,0.0,0.0,0.0,1e+12,0.0,0.0,0.0,0.0,0.0,0.0,1e+12,0.0,0.0,0.0,0.0,0.0,0.0,0.001,-4.41285899786e-05,2.92311127873e-07,0.0,0.0,0.0,0.00112605221469,0.0,0.0,0.0,0.0,0.0,0.0,0.0,0.0,0.0,0.0,0.0,0.0,0.0,0.0,0.0,0.0,0.0,0.0,0.0,0.0,0.0,0.0,0.0,0.0,0.0,0.0,0.0,0.0,0.0,0.0,0.0,0.0,0.0,0.0,0.0,0.0
146160000000,4378,146160000000,odom,base_footprint,-0.620951056204,1.29718018542,-0.00100831671957,-0.00158060956077,-0.000194104744129,0.992684890659,-0.120723534795,1e-05,0.0,0.0,0.0,0.0,0.0,0.0,1e-05,0.0,0.0,0.0,0.0,0.0,0.0,1e+12,0.0,0.0,0.0,0.0,0.0,0.0,1e+12,0.0,0.0,0.0,0.0,0.0,0.0,1e+12,0.0,0.0,0.0,0.0,0.0,0.0,0.001,-4.41093503801e-05,2.92012512154e-07,0.0,0.0,0.0,0.00112569963732,0.0,0.0,0.0,0.0,0.0,0.0,0.0,0.0,0.0,0.0,0.0,0.0,0.0,0.0,0.0,0.0,0.0,0.0,0.0,0.0,0.0,0.0,0.0,0.0,0.0,0.0,0.0,0.0,0.0,0.0,0.0,0.0,0.0,0.0,0.0,0.0
146193000000,4379,146193000000,odom,base_footprint,-0.620949713892,1.29718053036,-0.00100831681842,-0.00158060670577,-0.000194130448643,0.992682938846,-0.120739583069,1e-05,0.0,0.0,0.0,0.0,0.0,0.0,1e-05,0.0,0.0,0.0,0.0,0.0,0.0,1e+12,0.0,0.0,0.0,0.0,0.0,0.0,1e+12,0.0,0.0,0.0,0.0,0.0,0.0,1e+12,0.0,0.0,0.0,0.0,0.0,0.0,0.001,-4.40901048669e-05,2.91724828341e-07,0.0,0.0,0.0,0.00112534724818,0.0,0.0,0.0,0.0,0.0,0.0,0.0,0.0,0.0,0.0,0.0,0.0,0.0,0.0,0.0,0.0,0.0,0.0,0.0,0.0,0.0,0.0,0.0,0.0,0.0,0.0,0.0,0.0,0.0,0.0,0.0,0.0,0.0,0.0,0.0,0.0
146227000000,4380,146227000000,odom,base_footprint,-0.620948331563,1.29718088563,-0.00100831692019,-0.00158060376467,-0.000194156923429,0.992680928264,-0.120756112289,1e-05,0.0,0.0,0.0,0.0,0.0,0.0,1e-05,0.0,0.0,0.0,0.0,0.0,0.0,1e+12,0.0,0.0,0.0,0.0,0.0,0.0,1e+12,0.0,0.0,0.0,0.0,0.0,0.0,1e+12,0.0,0.0,0.0,0.0,0.0,0.0,0.001,-4.40702684825e-05,2.91417650474e-07,0.0,0.0,0.0,0.00112498423923,0.0,0.0,0.0,0.0,0.0,0.0,0.0,0.0,0.0,0.0,0.0,0.0,0.0,0.0,0.0,0.0,0.0,0.0,0.0,0.0,0.0,0.0,0.0,0.0,0.0,0.0,0.0,0.0,0.0,0.0,0.0,0.0,0.0,0.0,0.0,0.0
146260000000,4381,146260000000,odom,base_footprint,-0.620946990532,1.29718123033,-0.0010083170189,-0.00158060091047,-0.000194182611152,0.992678977184,-0.120772150146,1e-05,0.0,0.0,0.0,0.0,0.0,0.0,1e-05,0.0,0.0,0.0,0.0,0.0,0.0,1e+12,0.0,0.0,0.0,0.0,0.0,0.0,1e+12,0.0,0.0,0.0,0.0,0.0,0.0,1e+12,0.0,0.0,0.0,0.0,0.0,0.0,0.001,-4.40510122944e-05,2.91131219505e-07,0.0,0.0,0.0,0.00112463197396,0.0,0.0,0.0,0.0,0.0,0.0,0.0,0.0,0.0,0.0,0.0,0.0,0.0,0.0,0.0,0.0,0.0,0.0,0.0,0.0,0.0,0.0,0.0,0.0,0.0,0.0,0.0,0.0,0.0,0.0,0.0,0.0,0.0,0.0,0.0,0.0
146293000000,4382,146293000000,odom,base_footprint,-0.620945650133,1.29718157493,-0.00100831711754,-0.00158059805666,-0.00019420829061,0.992677026465,-0.120788182875,1e-05,0.0,0.0,0.0,0.0,0.0,0.0,1e-05,0.0,0.0,0.0,0.0,0.0,0.0,1e+12,0.0,0.0,0.0,0.0,0.0,0.0,1e+12,0.0,0.0,0.0,0.0,0.0,0.0,1e+12,0.0,0.0,0.0,0.0,0.0,0.0,0.001,-4.40317466723e-05,2.9084527707e-07,0.0,0.0,0.0,0.00112427977992,0.0,0.0,0.0,0.0,0.0,0.0,0.0,0.0,0.0,0.0,0.0,0.0,0.0,0.0,0.0,0.0,0.0,0.0,0.0,0.0,0.0,0.0,0.0,0.0,0.0,0.0,0.0,0.0,0.0,0.0,0.0,0.0,0.0,0.0,0.0,0.0
146327000000,4383,146327000000,odom,base_footprint,-0.620944269777,1.29718192985,-0.00100831721911,-0.00158059511678,-0.00019423473959,0.99267501701,-0.120804696081,1e-05,0.0,0.0,0.0,0.0,0.0,0.0,1e-05,0.0,0.0,0.0,0.0,0.0,0.0,1e+12,0.0,0.0,0.0,0.0,0.0,0.0,1e+12,0.0,0.0,0.0,0.0,0.0,0.0,1e+12,0.0,0.0,0.0,0.0,0.0,0.0,0.001,-4.40118932201e-05,2.90539260437e-07,0.0,0.0,0.0,0.00112391698414,0.0,0.0,0.0,0.0,0.0,0.0,0.0,0.0,0.0,0.0,0.0,0.0,0.0,0.0,0.0,0.0,0.0,0.0,0.0,0.0,0.0,0.0,0.0,0.0,0.0,0.0,0.0,0.0,0.0,0.0,0.0,0.0,0.0,0.0,0.0,0.0
146360000000,4384,146360000000,odom,base_footprint,-0.62094293066,1.29718227422,-0.00100831731762,-0.00158059226376,-0.00019426040227,0.992673067025,-0.120820718401,1e-05,0.0,0.0,0.0,0.0,0.0,0.0,1e-05,0.0,0.0,0.0,0.0,0.0,0.0,1e+12,0.0,0.0,0.0,0.0,0.0,0.0,1e+12,0.0,0.0,0.0,0.0,0.0,0.0,1e+12,0.0,0.0,0.0,0.0,0.0,0.0,0.001,-4.39926153486e-05,2.90244311717e-07,0.0,0.0,0.0,0.00112356492736,0.0,0.0,0.0,0.0,0.0,0.0,0.0,0.0,0.0,0.0,0.0,0.0,0.0,0.0,0.0,0.0,0.0,0.0,0.0,0.0,0.0,0.0,0.0,0.0,0.0,0.0,0.0,0.0,0.0,0.0,0.0,0.0,0.0,0.0,0.0,0.0
146393000000,4385,146393000000,odom,base_footprint,-0.620941592176,1.29718261848,-0.00100831741606,-0.00158058941113,-0.00019428605669,0.9926711174,-0.120836735595,1e-05,0.0,0.0,0.0,0.0,0.0,0.0,1e-05,0.0,0.0,0.0,0.0,0.0,0.0,1e+12,0.0,0.0,0.0,0.0,0.0,0.0,1e+12,0.0,0.0,0.0,0.0,0.0,0.0,1e+12,0.0,0.0,0.0,0.0,0.0,0.0,0.001,-4.39733337227e-05,2.89960103799e-07,0.0,0.0,0.0,0.00112321293902,0.0,0.0,0.0,0.0,0.0,0.0,0.0,0.0,0.0,0.0,0.0,0.0,0.0,0.0,0.0,0.0,0.0,0.0,0.0,0.0,0.0,0.0,0.0,0.0,0.0,0.0,0.0,0.0,0.0,0.0,0.0,0.0,0.0,0.0,0.0,0.0
146427000000,4386,146427000000,odom,base_footprint,-0.620940213792,1.29718297306,-0.00100831751741,-0.00158058647246,-0.000194312479879,0.992669109075,-0.120853232799,1e-05,0.0,0.0,0.0,0.0,0.0,0.0,1e-05,0.0,0.0,0.0,0.0,0.0,0.0,1e+12,0.0,0.0,0.0,0.0,0.0,0.0,1e+12,0.0,0.0,0.0,0.0,0.0,0.0,1e+12,0.0,0.0,0.0,0.0,0.0,0.0,0.001,-4.39534608299e-05,2.89655909104e-07,0.0,0.0,0.0,0.00112285035605,0.0,0.0,0.0,0.0,0.0,0.0,0.0,0.0,0.0,0.0,0.0,0.0,0.0,0.0,0.0,0.0,0.0,0.0,0.0,0.0,0.0,0.0,0.0,0.0,0.0,0.0,0.0,0.0,0.0,0.0,0.0,0.0,0.0,0.0,0.0,0.0
146460000000,4387,146460000000,odom,base_footprint,-0.620938876591,1.29718331709,-0.00100831761572,-0.00158058362063,-0.000194338117533,0.992667160185,-0.120869239591,1e-05,0.0,0.0,0.0,0.0,0.0,0.0,1e-05,0.0,0.0,0.0,0.0,0.0,0.0,1e+12,0.0,0.0,0.0,0.0,0.0,0.0,1e+12,0.0,0.0,0.0,0.0,0.0,0.0,1e+12,0.0,0.0,0.0,0.0,0.0,0.0,0.001,-4.39341640705e-05,2.89362666001e-07,0.0,0.0,0.0,0.00112249850664,0.0,0.0,0.0,0.0,0.0,0.0,0.0,0.0,0.0,0.0,0.0,0.0,0.0,0.0,0.0,0.0,0.0,0.0,0.0,0.0,0.0,0.0,0.0,0.0,0.0,0.0,0.0,0.0,0.0,0.0,0.0,0.0,0.0,0.0,0.0,0.0
146493000000,4388,146493000000,odom,base_footprint,-0.620937540023,1.29718366101,-0.00100831771396,-0.00158058076918,-0.000194363746932,0.992665211656,-0.120885241261,1e-05,0.0,0.0,0.0,0.0,0.0,0.0,1e-05,0.0,0.0,0.0,0.0,0.0,0.0,1e+12,0.0,0.0,0.0,0.0,0.0,0.0,1e+12,0.0,0.0,0.0,0.0,0.0,0.0,1e+12,0.0,0.0,0.0,0.0,0.0,0.0,0.001,-4.39148609147e-05,2.89080192568e-07,0.0,0.0,0.0,0.00112214672583,0.0,0.0,0.0,0.0,0.0,0.0,0.0,0.0,0.0,0.0,0.0,0.0,0.0,0.0,0.0,0.0,0.0,0.0,0.0,0.0,0.0,0.0,0.0,0.0,0.0,0.0,0.0,0.0,0.0,0.0,0.0,0.0,0.0,0.0,0.0,0.0
146527000000,4389,146527000000,odom,base_footprint,-0.620936163615,1.29718401524,-0.0010083178151,-0.00158057783174,-0.000194390144347,0.99266320446,-0.120901722474,1e-05,0.0,0.0,0.0,0.0,0.0,0.0,1e-05,0.0,0.0,0.0,0.0,0.0,0.0,1e+12,0.0,0.0,0.0,0.0,0.0,0.0,1e+12,0.0,0.0,0.0,0.0,0.0,0.0,1e+12,0.0,0.0,0.0,0.0,0.0,0.0,0.001,-4.38949686614e-05,2.88777805075e-07,0.0,0.0,0.0,0.00112178435702,0.0,0.0,0.0,0.0,0.0,0.0,0.0,0.0,0.0,0.0,0.0,0.0,0.0,0.0,0.0,0.0,0.0,0.0,0.0,0.0,0.0,0.0,0.0,0.0,0.0,0.0,0.0,0.0,0.0,0.0,0.0,0.0,0.0,0.0,0.0,0.0
146560000000,4390,146560000000,odom,base_footprint,-0.620934828331,1.29718435894,-0.00100831791321,-0.00158057498109,-0.000194415756991,0.992661256667,-0.120917713749,1e-05,0.0,0.0,0.0,0.0,0.0,0.0,1e-05,0.0,0.0,0.0,0.0,0.0,0.0,1e+12,0.0,0.0,0.0,0.0,0.0,0.0,1e+12,0.0,0.0,0.0,0.0,0.0,0.0,1e+12,0.0,0.0,0.0,0.0,0.0,0.0,0.001,-4.38756530817e-05,2.88486276724e-07,0.0,0.0,0.0,0.00112143271599,0.0,0.0,0.0,0.0,0.0,0.0,0.0,0.0,0.0,0.0,0.0,0.0,0.0,0.0,0.0,0.0,0.0,0.0,0.0,0.0,0.0,0.0,0.0,0.0,0.0,0.0,0.0,0.0,0.0,0.0,0.0,0.0,0.0,0.0,0.0,0.0
146593000000,4391,146593000000,odom,base_footprint,-0.62093349368,1.29718470252,-0.00100831801124,-0.00158057213082,-0.000194441361385,0.992659309235,-0.120933699906,1e-05,0.0,0.0,0.0,0.0,0.0,0.0,1e-05,0.0,0.0,0.0,0.0,0.0,0.0,1e+12,0.0,0.0,0.0,0.0,0.0,0.0,1e+12,0.0,0.0,0.0,0.0,0.0,0.0,1e+12,0.0,0.0,0.0,0.0,0.0,0.0,0.001,-4.38563338946e-05,2.88194769457e-07,0.0,0.0,0.0,0.00112108114354,0.0,0.0,0.0,0.0,0.0,0.0,0.0,0.0,0.0,0.0,0.0,0.0,0.0,0.0,0.0,0.0,0.0,0.0,0.0,0.0,0.0,0.0,0.0,0.0,0.0,0.0,0.0,0.0,0.0,0.0,0.0,0.0,0.0,0.0,0.0,0.0
146627000000,4392,146627000000,odom,base_footprint,-0.620932119248,1.2971850564,-0.00100831811218,-0.0015805691946,-0.000194467733044,0.99265730317,-0.12095016514,1e-05,0.0,0.0,0.0,0.0,0.0,0.0,1e-05,0.0,0.0,0.0,0.0,0.0,0.0,1e+12,0.0,0.0,0.0,0.0,0.0,0.0,1e+12,0.0,0.0,0.0,0.0,0.0,0.0,1e+12,0.0,0.0,0.0,0.0,0.0,0.0,0.001,-4.3836419735e-05,2.87894753971e-07,0.0,0.0,0.0,0.00112071898975,0.0,0.0,0.0,0.0,0.0,0.0,0.0,0.0,0.0,0.0,0.0,0.0,0.0,0.0,0.0,0.0,0.0,0.0,0.0,0.0,0.0,0.0,0.0,0.0,0.0,0.0,0.0,0.0,0.0,0.0,0.0,0.0,0.0,0.0,0.0,0.0
146660000000,4393,146660000000,odom,base_footprint,-0.620930785882,1.29718539976,-0.00100831821008,-0.00158056634513,-0.000194493320695,0.992655356474,-0.12096614091,1e-05,0.0,0.0,0.0,0.0,0.0,0.0,1e-05,0.0,0.0,0.0,0.0,0.0,0.0,1e+12,0.0,0.0,0.0,0.0,0.0,0.0,1e+12,0.0,0.0,0.0,0.0,0.0,0.0,1e+12,0.0,0.0,0.0,0.0,0.0,0.0,0.001,-4.38170877423e-05,2.87603825005e-07,0.0,0.0,0.0,0.00112036755761,0.0,0.0,0.0,0.0,0.0,0.0,0.0,0.0,0.0,0.0,0.0,0.0,0.0,0.0,0.0,0.0,0.0,0.0,0.0,0.0,0.0,0.0,0.0,0.0,0.0,0.0,0.0,0.0,0.0,0.0,0.0,0.0,0.0,0.0,0.0,0.0
146693000000,4394,146693000000,odom,base_footprint,-0.620929453151,1.297185743,-0.00100831830791,-0.00158056349606,-0.000194518900102,0.99265341014,-0.120982111565,1e-05,0.0,0.0,0.0,0.0,0.0,0.0,1e-05,0.0,0.0,0.0,0.0,0.0,0.0,1e+12,0.0,0.0,0.0,0.0,0.0,0.0,1e+12,0.0,0.0,0.0,0.0,0.0,0.0,1e+12,0.0,0.0,0.0,0.0,0.0,0.0,0.001,-4.37977472562e-05,2.87314605443e-07,0.0,0.0,0.0,0.00112001619473,0.0,0.0,0.0,0.0,0.0,0.0,0.0,0.0,0.0,0.0,0.0,0.0,0.0,0.0,0.0,0.0,0.0,0.0,0.0,0.0,0.0,0.0,0.0,0.0,0.0,0.0,0.0,0.0,0.0,0.0,0.0,0.0,0.0,0.0,0.0,0.0
146727000000,4395,146727000000,odom,base_footprint,-0.620928080696,1.29718609653,-0.00100831840864,-0.00158056056106,-0.000194545246022,0.992651405206,-0.120998560831,1e-05,0.0,0.0,0.0,0.0,0.0,0.0,1e-05,0.0,0.0,0.0,0.0,0.0,0.0,1e+12,0.0,0.0,0.0,0.0,0.0,0.0,1e+12,0.0,0.0,0.0,0.0,0.0,0.0,1e+12,0.0,0.0,0.0,0.0,0.0,0.0,0.001,-4.37778138152e-05,2.87016317542e-07,0.0,0.0,0.0,0.0011196542569,0.0,0.0,0.0,0.0,0.0,0.0,0.0,0.0,0.0,0.0,0.0,0.0,0.0,0.0,0.0,0.0,0.0,0.0,0.0,0.0,0.0,0.0,0.0,0.0,0.0,0.0,0.0,0.0,0.0,0.0,0.0,0.0,0.0,0.0,0.0,0.0
146760000000,4396,146760000000,odom,base_footprint,-0.62092674925,1.29718643955,-0.00100831850641,-0.00158055771294,-0.000194570808992,0.992649459608,-0.121014521107,1e-05,0.0,0.0,0.0,0.0,0.0,0.0,1e-05,0.0,0.0,0.0,0.0,0.0,0.0,1e+12,0.0,0.0,0.0,0.0,0.0,0.0,1e+12,0.0,0.0,0.0,0.0,0.0,0.0,1e+12,0.0,0.0,0.0,0.0,0.0,0.0,0.001,-4.37584544935e-05,2.86727608226e-07,0.0,0.0,0.0,0.00111930297463,0.0,0.0,0.0,0.0,0.0,0.0,0.0,0.0,0.0,0.0,0.0,0.0,0.0,0.0,0.0,0.0,0.0,0.0,0.0,0.0,0.0,0.0,0.0,0.0,0.0,0.0,0.0,0.0,0.0,0.0,0.0,0.0,0.0,0.0,0.0,0.0
146793000000,4397,146793000000,odom,base_footprint,-0.620925418438,1.29718678245,-0.0010083186042,-0.00158055486544,-0.000194596364078,0.992647514373,-0.121030476276,1e-05,0.0,0.0,0.0,0.0,0.0,0.0,1e-05,0.0,0.0,0.0,0.0,0.0,0.0,1e+12,0.0,0.0,0.0,0.0,0.0,0.0,1e+12,0.0,0.0,0.0,0.0,0.0,0.0,1e+12,0.0,0.0,0.0,0.0,0.0,0.0,0.001,-4.37390830039e-05,2.8643977263e-07,0.0,0.0,0.0,0.00111895157925,0.0,0.0,0.0,0.0,0.0,0.0,0.0,0.0,0.0,0.0,0.0,0.0,0.0,0.0,0.0,0.0,0.0,0.0,0.0,0.0,0.0,0.0,0.0,0.0,0.0,0.0,0.0,0.0,0.0,0.0,0.0,0.0,0.0,0.0,0.0,0.0
146827000000,4398,146827000000,odom,base_footprint,-0.62092404796,1.29718713563,-0.00100831870489,-0.00158055193206,-0.000194622684953,0.99264551057,-0.121046909594,1e-05,0.0,0.0,0.0,0.0,0.0,0.0,1e-05,0.0,0.0,0.0,0.0,0.0,0.0,1e+12,0.0,0.0,0.0,0.0,0.0,0.0,1e+12,0.0,0.0,0.0,0.0,0.0,0.0,1e+12,0.0,0.0,0.0,0.0,0.0,0.0,0.001,-4.37191147808e-05,2.86143507697e-07,0.0,0.0,0.0,0.00111858962804,0.0,0.0,0.0,0.0,0.0,0.0,0.0,0.0,0.0,0.0,0.0,0.0,0.0,0.0,0.0,0.0,0.0,0.0,0.0,0.0,0.0,0.0,0.0,0.0,0.0,0.0,0.0,0.0,0.0,0.0,0.0,0.0,0.0,0.0,0.0,0.0
146860000000,4399,146860000000,odom,base_footprint,-0.620922718434,1.29718747831,-0.00100831880255,-0.00158054908535,-0.000194648223327,0.992643566071,-0.121062854396,1e-05,0.0,0.0,0.0,0.0,0.0,0.0,1e-05,0.0,0.0,0.0,0.0,0.0,0.0,1e+12,0.0,0.0,0.0,0.0,0.0,0.0,1e+12,0.0,0.0,0.0,0.0,0.0,0.0,1e+12,0.0,0.0,0.0,0.0,0.0,0.0,0.001,-4.36997286238e-05,2.85857491551e-07,0.0,0.0,0.0,0.00111823838928,0.0,0.0,0.0,0.0,0.0,0.0,0.0,0.0,0.0,0.0,0.0,0.0,0.0,0.0,0.0,0.0,0.0,0.0,0.0,0.0,0.0,0.0,0.0,0.0,0.0,0.0,0.0,0.0,0.0,0.0,0.0,0.0,0.0,0.0,0.0,0.0
146893000000,4400,146893000000,odom,base_footprint,-0.620921389541,1.29718782087,-0.00100831890014,-0.00158054623904,-0.000194673753474,0.992641621934,-0.121078794095,1e-05,0.0,0.0,0.0,0.0,0.0,0.0,1e-05,0.0,0.0,0.0,0.0,0.0,0.0,1e+12,0.0,0.0,0.0,0.0,0.0,0.0,1e+12,0.0,0.0,0.0,0.0,0.0,0.0,1e+12,0.0,0.0,0.0,0.0,0.0,0.0,0.001,-4.36803394877e-05,2.85560645796e-07,0.0,0.0,0.0,0.0011178872164,0.0,0.0,0.0,0.0,0.0,0.0,0.0,0.0,0.0,0.0,0.0,0.0,0.0,0.0,0.0,0.0,0.0,0.0,0.0,0.0,0.0,0.0,0.0,0.0,0.0,0.0,0.0,0.0,0.0,0.0,0.0,0.0,0.0,0.0,0.0,0.0
146927000000,4401,146927000000,odom,base_footprint,-0.620920021041,1.2971881737,-0.00100831900062,-0.00158054330688,-0.000194700048659,0.992639619264,-0.121095211478,1e-05,0.0,0.0,0.0,0.0,0.0,0.0,1e-05,0.0,0.0,0.0,0.0,0.0,0.0,1e+12,0.0,0.0,0.0,0.0,0.0,0.0,1e+12,0.0,0.0,0.0,0.0,0.0,0.0,1e+12,0.0,0.0,0.0,0.0,0.0,0.0,0.001,-4.36603528715e-05,2.85266196759e-07,0.0,0.0,0.0,0.0011175254776,0.0,0.0,0.0,0.0,0.0,0.0,0.0,0.0,0.0,0.0,0.0,0.0,0.0,0.0,0.0,0.0,0.0,0.0,0.0,0.0,0.0,0.0,0.0,0.0,0.0,0.0,0.0,0.0,0.0,0.0,0.0,0.0,0.0,0.0,0.0,0.0
146960000000,4402,146960000000,odom,base_footprint,-0.620918693434,1.29718851604,-0.00100831909808,-0.00158054046136,-0.000194725562108,0.992637675863,-0.121111140818,1e-05,0.0,0.0,0.0,0.0,0.0,0.0,1e-05,0.0,0.0,0.0,0.0,0.0,0.0,1e+12,0.0,0.0,0.0,0.0,0.0,0.0,1e+12,0.0,0.0,0.0,0.0,0.0,0.0,1e+12,0.0,0.0,0.0,0.0,0.0,0.0,0.001,-4.36409481808e-05,2.84981861752e-07,0.0,0.0,0.0,0.00111717444992,0.0,0.0,0.0,0.0,0.0,0.0,0.0,0.0,0.0,0.0,0.0,0.0,0.0,0.0,0.0,0.0,0.0,0.0,0.0,0.0,0.0,0.0,0.0,0.0,0.0,0.0,0.0,0.0,0.0,0.0,0.0,0.0,0.0,0.0,0.0,0.0
146993000000,4403,146993000000,odom,base_footprint,-0.620917366461,1.29718885826,-0.00100831919547,-0.00158053761624,-0.000194751067334,0.992635732826,-0.121127065058,1e-05,0.0,0.0,0.0,0.0,0.0,0.0,1e-05,0.0,0.0,0.0,0.0,0.0,0.0,1e+12,0.0,0.0,0.0,0.0,0.0,0.0,1e+12,0.0,0.0,0.0,0.0,0.0,0.0,1e+12,0.0,0.0,0.0,0.0,0.0,0.0,0.001,-4.36215375477e-05,2.84687341689e-07,0.0,0.0,0.0,0.00111682349185,0.0,0.0,0.0,0.0,0.0,0.0,0.0,0.0,0.0,0.0,0.0,0.0,0.0,0.0,0.0,0.0,0.0,0.0,0.0,0.0,0.0,0.0,0.0,0.0,0.0,0.0,0.0,0.0,0.0,0.0,0.0,0.0,0.0,0.0,0.0,0.0
147027000000,4404,147027000000,odom,base_footprint,-0.62091599994,1.29718921074,-0.00100831929573,-0.0015805346853,-0.000194777336849,0.992633731289,-0.121143466517,1e-05,0.0,0.0,0.0,0.0,0.0,0.0,1e-05,0.0,0.0,0.0,0.0,0.0,0.0,1e+12,0.0,0.0,0.0,0.0,0.0,0.0,1e+12,0.0,0.0,0.0,0.0,0.0,0.0,1e+12,0.0,0.0,0.0,0.0,0.0,0.0,0.001,-4.36015340903e-05,2.8439343241e-07,0.0,0.0,0.0,0.00111646197212,0.0,0.0,0.0,0.0,0.0,0.0,0.0,0.0,0.0,0.0,0.0,0.0,0.0,0.0,0.0,0.0,0.0,0.0,0.0,0.0,0.0,0.0,0.0,0.0,0.0,0.0,0.0,0.0,0.0,0.0,0.0,0.0,0.0,0.0,0.0,0.0
147060000000,4405,147060000000,odom,base_footprint,-0.620914674255,1.29718955273,-0.00100831939299,-0.00158053184097,-0.000194802825387,0.992631788989,-0.121159380406,1e-05,0.0,0.0,0.0,0.0,0.0,0.0,1e-05,0.0,0.0,0.0,0.0,0.0,0.0,1e+12,0.0,0.0,0.0,0.0,0.0,0.0,1e+12,0.0,0.0,0.0,0.0,0.0,0.0,1e+12,0.0,0.0,0.0,0.0,0.0,0.0,0.001,-4.35821108864e-05,2.84100160378e-07,0.0,0.0,0.0,0.00111611115703,0.0,0.0,0.0,0.0,0.0,0.0,0.0,0.0,0.0,0.0,0.0,0.0,0.0,0.0,0.0,0.0,0.0,0.0,0.0,0.0,0.0,0.0,0.0,0.0,0.0,0.0,0.0,0.0,0.0,0.0,0.0,0.0,0.0,0.0,0.0,0.0
147093000000,4406,147093000000,odom,base_footprint,-0.620913349204,1.29718989461,-0.00100831949017,-0.00158052899703,-0.000194828305708,0.992629847052,-0.121175289198,1e-05,0.0,0.0,0.0,0.0,0.0,0.0,1e-05,0.0,0.0,0.0,0.0,0.0,0.0,1e+12,0.0,0.0,0.0,0.0,0.0,0.0,1e+12,0.0,0.0,0.0,0.0,0.0,0.0,1e+12,0.0,0.0,0.0,0.0,0.0,0.0,0.001,-4.3562679383e-05,2.83774427145e-07,0.0,0.0,0.0,0.0011157604038,0.0,0.0,0.0,0.0,0.0,0.0,0.0,0.0,0.0,0.0,0.0,0.0,0.0,0.0,0.0,0.0,0.0,0.0,0.0,0.0,0.0,0.0,0.0,0.0,0.0,0.0,0.0,0.0,0.0,0.0,0.0,0.0,0.0,0.0,0.0,0.0
147127000000,4407,147127000000,odom,base_footprint,-0.620911984666,1.29719024674,-0.00100831959023,-0.00158052606734,-0.000194854549577,0.992627846648,-0.121191674749,1e-05,0.0,0.0,0.0,0.0,0.0,0.0,1e-05,0.0,0.0,0.0,0.0,0.0,0.0,1e+12,0.0,0.0,0.0,0.0,0.0,0.0,1e+12,0.0,0.0,0.0,0.0,0.0,0.0,1e+12,0.0,0.0,0.0,0.0,0.0,0.0,0.001,-4.35425795183e-05,2.82969632718e-07,0.0,0.0,0.0,0.00111539932827,0.0,0.0,0.0,0.0,0.0,0.0,0.0,0.0,0.0,0.0,0.0,0.0,0.0,0.0,0.0,0.0,0.0,0.0,0.0,0.0,0.0,0.0,0.0,0.0,0.0,0.0,0.0,0.0,0.0,0.0,0.0,0.0,0.0,0.0,0.0,0.0
147160000000,4408,147160000000,odom,base_footprint,-0.620910660907,1.29719058839,-0.00100831968732,-0.00158052322429,-0.000194880013418,0.992625905448,-0.121207573206,1e-05,0.0,0.0,0.0,0.0,0.0,0.0,1e-05,0.0,0.0,0.0,0.0,0.0,0.0,1e+12,0.0,0.0,0.0,0.0,0.0,0.0,1e+12,0.0,0.0,0.0,0.0,0.0,0.0,1e+12,0.0,0.0,0.0,0.0,0.0,0.0,0.001,-4.35231133636e-05,2.826982227e-07,0.0,0.0,0.0,0.00111504905978,0.0,0.0,0.0,0.0,0.0,0.0,0.0,0.0,0.0,0.0,0.0,0.0,0.0,0.0,0.0,0.0,0.0,0.0,0.0,0.0,0.0,0.0,0.0,0.0,0.0,0.0,0.0,0.0,0.0,0.0,0.0,0.0,0.0,0.0,0.0,0.0
147193000000,4409,147193000000,odom,base_footprint,-0.620909337783,1.29719092993,-0.00100831978434,-0.00158052038163,-0.000194905469061,0.99262396461,-0.121223466576,1e-05,0.0,0.0,0.0,0.0,0.0,0.0,1e-05,0.0,0.0,0.0,0.0,0.0,0.0,1e+12,0.0,0.0,0.0,0.0,0.0,0.0,1e+12,0.0,0.0,0.0,0.0,0.0,0.0,1e+12,0.0,0.0,0.0,0.0,0.0,0.0,0.001,-4.35036485678e-05,2.82421820243e-07,0.0,0.0,0.0,0.00111469880647,0.0,0.0,0.0,0.0,0.0,0.0,0.0,0.0,0.0,0.0,0.0,0.0,0.0,0.0,0.0,0.0,0.0,0.0,0.0,0.0,0.0,0.0,0.0,0.0,0.0,0.0,0.0,0.0,0.0,0.0,0.0,0.0,0.0,0.0,0.0,0.0
147227000000,4410,147227000000,odom,base_footprint,-0.620907975229,1.29719128171,-0.00100831988423,-0.00158051745323,-0.000194931687517,0.992621965339,-0.121239836243,1e-05,0.0,0.0,0.0,0.0,0.0,0.0,1e-05,0.0,0.0,0.0,0.0,0.0,0.0,1e+12,0.0,0.0,0.0,0.0,0.0,0.0,1e+12,0.0,0.0,0.0,0.0,0.0,0.0,1e+12,0.0,0.0,0.0,0.0,0.0,0.0,0.001,-4.34835851507e-05,2.82136960564e-07,0.0,0.0,0.0,0.00111433802721,0.0,0.0,0.0,0.0,0.0,0.0,0.0,0.0,0.0,0.0,0.0,0.0,0.0,0.0,0.0,0.0,0.0,0.0,0.0,0.0,0.0,0.0,0.0,0.0,0.0,0.0,0.0,0.0,0.0,0.0,0.0,0.0,0.0,0.0,0.0,0.0
147260000000,4411,147260000000,odom,base_footprint,-0.620906653396,1.29719162302,-0.00100831998112,-0.00158051461136,-0.00019495712652,0.992620025239,-0.121255719287,1e-05,0.0,0.0,0.0,0.0,0.0,0.0,1e-05,0.0,0.0,0.0,0.0,0.0,0.0,1e+12,0.0,0.0,0.0,0.0,0.0,0.0,1e+12,0.0,0.0,0.0,0.0,0.0,0.0,1e+12,0.0,0.0,0.0,0.0,0.0,0.0,0.001,-4.34641048048e-05,2.81871701495e-07,0.0,0.0,0.0,0.00111398793972,0.0,0.0,0.0,0.0,0.0,0.0,0.0,0.0,0.0,0.0,0.0,0.0,0.0,0.0,0.0,0.0,0.0,0.0,0.0,0.0,0.0,0.0,0.0,0.0,0.0,0.0,0.0,0.0,0.0,0.0,0.0,0.0,0.0,0.0,0.0,0.0
147293000000,4412,147293000000,odom,base_footprint,-0.620905332198,1.29719196422,-0.00100832007794,-0.00158051176989,-0.000194982557325,0.992618085502,-0.121271597247,1e-05,0.0,0.0,0.0,0.0,0.0,0.0,1e-05,0.0,0.0,0.0,0.0,0.0,0.0,1e+12,0.0,0.0,0.0,0.0,0.0,0.0,1e+12,0.0,0.0,0.0,0.0,0.0,0.0,1e+12,0.0,0.0,0.0,0.0,0.0,0.0,0.001,-4.34446196622e-05,2.8159699347e-07,0.0,0.0,0.0,0.0011136379171,0.0,0.0,0.0,0.0,0.0,0.0,0.0,0.0,0.0,0.0,0.0,0.0,0.0,0.0,0.0,0.0,0.0,0.0,0.0,0.0,0.0,0.0,0.0,0.0,0.0,0.0,0.0,0.0,0.0,0.0,0.0,0.0,0.0,0.0,0.0,0.0
147327000000,4413,147327000000,odom,base_footprint,-0.62090397163,1.29719231563,-0.00100832017762,-0.00158050884273,-0.000195008750192,0.992616087365,-0.121287951041,1e-05,0.0,0.0,0.0,0.0,0.0,0.0,1e-05,0.0,0.0,0.0,0.0,0.0,0.0,1e+12,0.0,0.0,0.0,0.0,0.0,0.0,1e+12,0.0,0.0,0.0,0.0,0.0,0.0,1e+12,0.0,0.0,0.0,0.0,0.0,0.0,0.001,-4.34245374897e-05,2.81313955357e-07,0.0,0.0,0.0,0.00111327736218,0.0,0.0,0.0,0.0,0.0,0.0,0.0,0.0,0.0,0.0,0.0,0.0,0.0,0.0,0.0,0.0,0.0,0.0,0.0,0.0,0.0,0.0,0.0,0.0,0.0,0.0,0.0,0.0,0.0,0.0,0.0,0.0,0.0,0.0,0.0,0.0
147360000000,4414,147360000000,odom,base_footprint,-0.620902651724,1.2971926566,-0.0010083202743,-0.00158050600205,-0.000195034164365,0.992614148365,-0.121303818683,1e-05,0.0,0.0,0.0,0.0,0.0,0.0,1e-05,0.0,0.0,0.0,0.0,0.0,0.0,1e+12,0.0,0.0,0.0,0.0,0.0,0.0,1e+12,0.0,0.0,0.0,0.0,0.0,0.0,1e+12,0.0,0.0,0.0,0.0,0.0,0.0,0.001,-4.34050400739e-05,2.81040336926e-07,0.0,0.0,0.0,0.00111292748539,0.0,0.0,0.0,0.0,0.0,0.0,0.0,0.0,0.0,0.0,0.0,0.0,0.0,0.0,0.0,0.0,0.0,0.0,0.0,0.0,0.0,0.0,0.0,0.0,0.0,0.0,0.0,0.0,0.0,0.0,0.0,0.0,0.0,0.0,0.0,0.0
147393000000,4415,147393000000,odom,base_footprint,-0.620901332454,1.29719299745,-0.00100832037092,-0.00158050316178,-0.000195059570347,0.99261220973,-0.121319681245,1e-05,0.0,0.0,0.0,0.0,0.0,0.0,1e-05,0.0,0.0,0.0,0.0,0.0,0.0,1e+12,0.0,0.0,0.0,0.0,0.0,0.0,1e+12,0.0,0.0,0.0,0.0,0.0,0.0,1e+12,0.0,0.0,0.0,0.0,0.0,0.0,0.001,-4.33855368363e-05,2.80767372944e-07,0.0,0.0,0.0,0.00111257767972,0.0,0.0,0.0,0.0,0.0,0.0,0.0,0.0,0.0,0.0,0.0,0.0,0.0,0.0,0.0,0.0,0.0,0.0,0.0,0.0,0.0,0.0,0.0,0.0,0.0,0.0,0.0,0.0,0.0,0.0,0.0,0.0,0.0,0.0,0.0,0.0
147427000000,4416,147427000000,odom,base_footprint,-0.620899973872,1.29719334851,-0.00100832047039,-0.00158050023584,-0.000195085737644,0.992610212727,-0.121336019178,1e-05,0.0,0.0,0.0,0.0,0.0,0.0,1e-05,0.0,0.0,0.0,0.0,0.0,0.0,1e+12,0.0,0.0,0.0,0.0,0.0,0.0,1e+12,0.0,0.0,0.0,0.0,0.0,0.0,1e+12,0.0,0.0,0.0,0.0,0.0,0.0,0.001,-4.33654359928e-05,2.80486126682e-07,0.0,0.0,0.0,0.0011122173483,0.0,0.0,0.0,0.0,0.0,0.0,0.0,0.0,0.0,0.0,0.0,0.0,0.0,0.0,0.0,0.0,0.0,0.0,0.0,0.0,0.0,0.0,0.0,0.0,0.0,0.0,0.0,0.0,0.0,0.0,0.0,0.0,0.0,0.0,0.0,0.0
147460000000,4417,147460000000,odom,base_footprint,-0.620898655895,1.29719368914,-0.00100832056687,-0.00158049739634,-0.000195111126989,0.99260827483,-0.121351871429,1e-05,0.0,0.0,0.0,0.0,0.0,0.0,1e-05,0.0,0.0,0.0,0.0,0.0,0.0,1e+12,0.0,0.0,0.0,0.0,0.0,0.0,1e+12,0.0,0.0,0.0,0.0,0.0,0.0,1e+12,0.0,0.0,0.0,0.0,0.0,0.0,0.001,-4.33458884025e-05,2.80214173911e-07,0.0,0.0,0.0,0.00111186742004,0.0,0.0,0.0,0.0,0.0,0.0,0.0,0.0,0.0,0.0,0.0,0.0,0.0,0.0,0.0,0.0,0.0,0.0,0.0,0.0,0.0,0.0,0.0,0.0,0.0,0.0,0.0,0.0,0.0,0.0,0.0,0.0,0.0,0.0,0.0,0.0
147493000000,4418,147493000000,odom,base_footprint,-0.620897338555,1.29719402964,-0.00100832066324,-0.00158049455713,-0.000195136508066,0.992606337296,-0.121367718601,1e-05,0.0,0.0,0.0,0.0,0.0,0.0,1e-05,0.0,0.0,0.0,0.0,0.0,0.0,1e+12,0.0,0.0,0.0,0.0,0.0,0.0,1e+12,0.0,0.0,0.0,0.0,0.0,0.0,1e+12,0.0,0.0,0.0,0.0,0.0,0.0,0.001,-4.33263196005e-05,2.79943550956e-07,0.0,0.0,0.0,0.00111151736215,0.0,0.0,0.0,0.0,0.0,0.0,0.0,0.0,0.0,0.0,0.0,0.0,0.0,0.0,0.0,0.0,0.0,0.0,0.0,0.0,0.0,0.0,0.0,0.0,0.0,0.0,0.0,0.0,0.0,0.0,0.0,0.0,0.0,0.0,0.0,0.0
147527000000,4419,147527000000,odom,base_footprint,-0.620895981963,1.29719438035,-0.00100832076246,-0.00158049163229,-0.000195162649706,0.99260434143,-0.121384040681,1e-05,0.0,0.0,0.0,0.0,0.0,0.0,1e-05,0.0,0.0,0.0,0.0,0.0,0.0,1e+12,0.0,0.0,0.0,0.0,0.0,0.0,1e+12,0.0,0.0,0.0,0.0,0.0,0.0,1e+12,0.0,0.0,0.0,0.0,0.0,0.0,0.001,-4.33061492756e-05,2.79664693827e-07,0.0,0.0,0.0,0.00111115679397,0.0,0.0,0.0,0.0,0.0,0.0,0.0,0.0,0.0,0.0,0.0,0.0,0.0,0.0,0.0,0.0,0.0,0.0,0.0,0.0,0.0,0.0,0.0,0.0,0.0,0.0,0.0,0.0,0.0,0.0,0.0,0.0,0.0,0.0,0.0,0.0
147560000000,4420,147560000000,odom,base_footprint,-0.620894665917,1.29719472062,-0.00100832085869,-0.00158048879388,-0.000195188014164,0.992602404636,-0.121399877546,1e-05,0.0,0.0,0.0,0.0,0.0,0.0,1e-05,0.0,0.0,0.0,0.0,0.0,0.0,1e+12,0.0,0.0,0.0,0.0,0.0,0.0,1e+12,0.0,0.0,0.0,0.0,0.0,0.0,1e+12,0.0,0.0,0.0,0.0,0.0,0.0,0.001,-4.32865671905e-05,2.79395226787e-07,0.0,0.0,0.0,0.00111080690026,0.0,0.0,0.0,0.0,0.0,0.0,0.0,0.0,0.0,0.0,0.0,0.0,0.0,0.0,0.0,0.0,0.0,0.0,0.0,0.0,0.0,0.0,0.0,0.0,0.0,0.0,0.0,0.0,0.0,0.0,0.0,0.0,0.0,0.0,0.0,0.0
147593000000,4421,147593000000,odom,base_footprint,-0.620893350509,1.29719506078,-0.00100832095486,-0.00158048595587,-0.000195213370442,0.992600468206,-0.121415709337,1e-05,0.0,0.0,0.0,0.0,0.0,0.0,1e-05,0.0,0.0,0.0,0.0,0.0,0.0,1e+12,0.0,0.0,0.0,0.0,0.0,0.0,1e+12,0.0,0.0,0.0,0.0,0.0,0.0,1e+12,0.0,0.0,0.0,0.0,0.0,0.0,0.001,-4.32669795152e-05,2.7912568333e-07,0.0,0.0,0.0,0.00111045707621,0.0,0.0,0.0,0.0,0.0,0.0,0.0,0.0,0.0,0.0,0.0,0.0,0.0,0.0,0.0,0.0,0.0,0.0,0.0,0.0,0.0,0.0,0.0,0.0,0.0,0.0,0.0,0.0,0.0,0.0,0.0,0.0,0.0,0.0,0.0,0.0
147627000000,4422,147627000000,odom,base_footprint,-0.620891995907,1.29719541113,-0.00100832105387,-0.00158048303227,-0.000195239486536,0.992598473477,-0.121432015573,1e-05,0.0,0.0,0.0,0.0,0.0,0.0,1e-05,0.0,0.0,0.0,0.0,0.0,0.0,1e+12,0.0,0.0,0.0,0.0,0.0,0.0,1e+12,0.0,0.0,0.0,0.0,0.0,0.0,1e+12,0.0,0.0,0.0,0.0,0.0,0.0,0.001,-4.32467892951e-05,2.78839131476e-07,0.0,0.0,0.0,0.00111009672929,0.0,0.0,0.0,0.0,0.0,0.0,0.0,0.0,0.0,0.0,0.0,0.0,0.0,0.0,0.0,0.0,0.0,0.0,0.0,0.0,0.0,0.0,0.0,0.0,0.0,0.0,0.0,0.0,0.0,0.0,0.0,0.0,0.0,0.0,0.0,0.0
147660000000,4423,147660000000,odom,base_footprint,-0.620890681794,1.29719575105,-0.0010083211499,-0.00158048019505,-0.000195264826208,0.992596537787,-0.121447837065,1e-05,0.0,0.0,0.0,0.0,0.0,0.0,1e-05,0.0,0.0,0.0,0.0,0.0,0.0,1e+12,0.0,0.0,0.0,0.0,0.0,0.0,1e+12,0.0,0.0,0.0,0.0,0.0,0.0,1e+12,0.0,0.0,0.0,0.0,0.0,0.0,0.001,-4.32271896126e-05,2.7857143395e-07,0.0,0.0,0.0,0.00110974705436,0.0,0.0,0.0,0.0,0.0,0.0,0.0,0.0,0.0,0.0,0.0,0.0,0.0,0.0,0.0,0.0,0.0,0.0,0.0,0.0,0.0,0.0,0.0,0.0,0.0,0.0,0.0,0.0,0.0,0.0,0.0,0.0,0.0,0.0,0.0,0.0
147693000000,4424,147693000000,odom,base_footprint,-0.620889368319,1.29719609086,-0.00100832124587,-0.00158047735824,-0.000195290157704,0.992594602461,-0.121463653486,1e-05,0.0,0.0,0.0,0.0,0.0,0.0,1e-05,0.0,0.0,0.0,0.0,0.0,0.0,1e+12,0.0,0.0,0.0,0.0,0.0,0.0,1e+12,0.0,0.0,0.0,0.0,0.0,0.0,1e+12,0.0,0.0,0.0,0.0,0.0,0.0,0.001,-4.32075839783e-05,2.78303572953e-07,0.0,0.0,0.0,0.00110939745182,0.0,0.0,0.0,0.0,0.0,0.0,0.0,0.0,0.0,0.0,0.0,0.0,0.0,0.0,0.0,0.0,0.0,0.0,0.0,0.0,0.0,0.0,0.0,0.0,0.0,0.0,0.0,0.0,0.0,0.0,0.0,0.0,0.0,0.0,0.0,0.0
147727000000,4425,147727000000,odom,base_footprint,-0.62088801571,1.29719644085,-0.00100832134467,-0.00158047443587,-0.000195316248272,0.992592608871,-0.121479943891,1e-05,0.0,0.0,0.0,0.0,0.0,0.0,1e-05,0.0,0.0,0.0,0.0,0.0,0.0,1e+12,0.0,0.0,0.0,0.0,0.0,0.0,1e+12,0.0,0.0,0.0,0.0,0.0,0.0,1e+12,0.0,0.0,0.0,0.0,0.0,0.0,0.001,-4.31873780482e-05,2.78018335912e-07,0.0,0.0,0.0,0.0011090373315,0.0,0.0,0.0,0.0,0.0,0.0,0.0,0.0,0.0,0.0,0.0,0.0,0.0,0.0,0.0,0.0,0.0,0.0,0.0,0.0,0.0,0.0,0.0,0.0,0.0,0.0,0.0,0.0,0.0,0.0,0.0,0.0,0.0,0.0,0.0,0.0
147760000000,4426,147760000000,odom,base_footprint,-0.620886703531,1.29719678043,-0.0010083214405,-0.00158047159986,-0.000195341563175,0.992590674285,-0.12149575002,1e-05,0.0,0.0,0.0,0.0,0.0,0.0,1e-05,0.0,0.0,0.0,0.0,0.0,0.0,1e+12,0.0,0.0,0.0,0.0,0.0,0.0,1e+12,0.0,0.0,0.0,0.0,0.0,0.0,1e+12,0.0,0.0,0.0,0.0,0.0,0.0,0.001,-4.31677605064e-05,2.77751673005e-07,0.0,0.0,0.0,0.00110868787693,0.0,0.0,0.0,0.0,0.0,0.0,0.0,0.0,0.0,0.0,0.0,0.0,0.0,0.0,0.0,0.0,0.0,0.0,0.0,0.0,0.0,0.0,0.0,0.0,0.0,0.0,0.0,0.0,0.0,0.0,0.0,0.0,0.0,0.0,0.0,0.0
147793000000,4427,147793000000,odom,base_footprint,-0.620885391991,1.29719711989,-0.00100832153626,-0.00158046876425,-0.000195366869907,0.992588740065,-0.121511551083,1e-05,0.0,0.0,0.0,0.0,0.0,0.0,1e-05,0.0,0.0,0.0,0.0,0.0,0.0,1e+12,0.0,0.0,0.0,0.0,0.0,0.0,1e+12,0.0,0.0,0.0,0.0,0.0,0.0,1e+12,0.0,0.0,0.0,0.0,0.0,0.0,0.001,-4.31481348001e-05,2.77486838079e-07,0.0,0.0,0.0,0.00110833849541,0.0,0.0,0.0,0.0,0.0,0.0,0.0,0.0,0.0,0.0,0.0,0.0,0.0,0.0,0.0,0.0,0.0,0.0,0.0,0.0,0.0,0.0,0.0,0.0,0.0,0.0,0.0,0.0,0.0,0.0,0.0,0.0,0.0,0.0,0.0,0.0
147827000000,4428,147827000000,odom,base_footprint,-0.620884041375,1.29719746952,-0.00100832163486,-0.00158046584312,-0.000195392934966,0.992586747613,-0.121527825667,1e-05,0.0,0.0,0.0,0.0,0.0,0.0,1e-05,0.0,0.0,0.0,0.0,0.0,0.0,1e+12,0.0,0.0,0.0,0.0,0.0,0.0,1e+12,0.0,0.0,0.0,0.0,0.0,0.0,1e+12,0.0,0.0,0.0,0.0,0.0,0.0,0.001,-4.31279104657e-05,2.77202677954e-07,0.0,0.0,0.0,0.00110797860303,0.0,0.0,0.0,0.0,0.0,0.0,0.0,0.0,0.0,0.0,0.0,0.0,0.0,0.0,0.0,0.0,0.0,0.0,0.0,0.0,0.0,0.0,0.0,0.0,0.0,0.0,0.0,0.0,0.0,0.0,0.0,0.0,0.0,0.0,0.0,0.0
147861000000,4429,147861000000,odom,base_footprint,-0.620882731131,1.29719780875,-0.00100832173049,-0.00158046300831,-0.000195418225116,0.992584814134,-0.121543616446,1e-05,0.0,0.0,0.0,0.0,0.0,0.0,1e-05,0.0,0.0,0.0,0.0,0.0,0.0,1e+12,0.0,0.0,0.0,0.0,0.0,0.0,1e+12,0.0,0.0,0.0,0.0,0.0,0.0,1e+12,0.0,0.0,0.0,0.0,0.0,0.0,0.001,-4.31082754191e-05,2.76938354322e-07,0.0,0.0,0.0,0.00110762936972,0.0,0.0,0.0,0.0,0.0,0.0,0.0,0.0,0.0,0.0,0.0,0.0,0.0,0.0,0.0,0.0,0.0,0.0,0.0,0.0,0.0,0.0,0.0,0.0,0.0,0.0,0.0,0.0,0.0,0.0,0.0,0.0,0.0,0.0,0.0,0.0
147893000000,4430,147893000000,odom,base_footprint,-0.620881421527,1.29719814786,-0.00100832182605,-0.0015804601739,-0.000195443507102,0.99258288102,-0.121559402162,1e-05,0.0,0.0,0.0,0.0,0.0,0.0,1e-05,0.0,0.0,0.0,0.0,0.0,0.0,1e+12,0.0,0.0,0.0,0.0,0.0,0.0,1e+12,0.0,0.0,0.0,0.0,0.0,0.0,1e+12,0.0,0.0,0.0,0.0,0.0,0.0,0.001,-4.30886320767e-05,2.76664614221e-07,0.0,0.0,0.0,0.00110728021042,0.0,0.0,0.0,0.0,0.0,0.0,0.0,0.0,0.0,0.0,0.0,0.0,0.0,0.0,0.0,0.0,0.0,0.0,0.0,0.0,0.0,0.0,0.0,0.0,0.0,0.0,0.0,0.0,0.0,0.0,0.0,0.0,0.0,0.0,0.0,0.0
147927000000,4431,147927000000,odom,base_footprint,-0.620880072906,1.29719849713,-0.00100832192443,-0.00158045725401,-0.000195469546671,0.992580889708,-0.121575660938,1e-05,0.0,0.0,0.0,0.0,0.0,0.0,1e-05,0.0,0.0,0.0,0.0,0.0,0.0,1e+12,0.0,0.0,0.0,0.0,0.0,0.0,1e+12,0.0,0.0,0.0,0.0,0.0,0.0,1e+12,0.0,0.0,0.0,0.0,0.0,0.0,0.001,-4.3068389607e-05,2.76382276035e-07,0.0,0.0,0.0,0.00110692054673,0.0,0.0,0.0,0.0,0.0,0.0,0.0,0.0,0.0,0.0,0.0,0.0,0.0,0.0,0.0,0.0,0.0,0.0,0.0,0.0,0.0,0.0,0.0,0.0,0.0,0.0,0.0,0.0,0.0,0.0,0.0,0.0,0.0,0.0,0.0,0.0
147960000000,4432,147960000000,odom,base_footprint,-0.6208787646,1.297198836,-0.00100832201986,-0.0015804544204,-0.000195494812086,0.992578957336,-0.121591436377,1e-05,0.0,0.0,0.0,0.0,0.0,0.0,1e-05,0.0,0.0,0.0,0.0,0.0,0.0,1e+12,0.0,0.0,0.0,0.0,0.0,0.0,1e+12,0.0,0.0,0.0,0.0,0.0,0.0,1e+12,0.0,0.0,0.0,0.0,0.0,0.0,0.001,-4.30487368829e-05,2.76119681185e-07,0.0,0.0,0.0,0.00110657153611,0.0,0.0,0.0,0.0,0.0,0.0,0.0,0.0,0.0,0.0,0.0,0.0,0.0,0.0,0.0,0.0,0.0,0.0,0.0,0.0,0.0,0.0,0.0,0.0,0.0,0.0,0.0,0.0,0.0,0.0,0.0,0.0,0.0,0.0,0.0,0.0
147993000000,4433,147993000000,odom,base_footprint,-0.620877456932,1.29719917476,-0.00100832211521,-0.00158045158719,-0.000195520069342,0.992577025328,-0.121607206757,1e-05,0.0,0.0,0.0,0.0,0.0,0.0,1e-05,0.0,0.0,0.0,0.0,0.0,0.0,1e+12,0.0,0.0,0.0,0.0,0.0,0.0,1e+12,0.0,0.0,0.0,0.0,0.0,0.0,1e+12,0.0,0.0,0.0,0.0,0.0,0.0,0.001,-4.30290758812e-05,2.75847631382e-07,0.0,0.0,0.0,0.0011062225994,0.0,0.0,0.0,0.0,0.0,0.0,0.0,0.0,0.0,0.0,0.0,0.0,0.0,0.0,0.0,0.0,0.0,0.0,0.0,0.0,0.0,0.0,0.0,0.0,0.0,0.0,0.0,0.0,0.0,0.0,0.0,0.0,0.0,0.0,0.0,0.0
148027000000,4434,148027000000,odom,base_footprint,-0.620876110308,1.29719952367,-0.00100832221339,-0.00158044866854,-0.000195546083439,0.992575035157,-0.121623449737,1e-05,0.0,0.0,0.0,0.0,0.0,0.0,1e-05,0.0,0.0,0.0,0.0,0.0,0.0,1e+12,0.0,0.0,0.0,0.0,0.0,0.0,1e+12,0.0,0.0,0.0,0.0,0.0,0.0,1e+12,0.0,0.0,0.0,0.0,0.0,0.0,0.001,-4.30088152427e-05,2.7556711781e-07,0.0,0.0,0.0,0.00110586316584,0.0,0.0,0.0,0.0,0.0,0.0,0.0,0.0,0.0,0.0,0.0,0.0,0.0,0.0,0.0,0.0,0.0,0.0,0.0,0.0,0.0,0.0,0.0,0.0,0.0,0.0,0.0,0.0,0.0,0.0,0.0,0.0,0.0,0.0,0.0,0.0
148060000000,4435,148060000000,odom,base_footprint,-0.620874803939,1.2971998622,-0.00100832230861,-0.00158044583613,-0.000195571324137,0.992573103892,-0.121639209849,1e-05,0.0,0.0,0.0,0.0,0.0,0.0,1e-05,0.0,0.0,0.0,0.0,0.0,0.0,1e+12,0.0,0.0,0.0,0.0,0.0,0.0,1e+12,0.0,0.0,0.0,0.0,0.0,0.0,1e+12,0.0,0.0,0.0,0.0,0.0,0.0,0.001,-4.29891449141e-05,2.75295643615e-07,0.0,0.0,0.0,0.0011055143788,0.0,0.0,0.0,0.0,0.0,0.0,0.0,0.0,0.0,0.0,0.0,0.0,0.0,0.0,0.0,0.0,0.0,0.0,0.0,0.0,0.0,0.0,0.0,0.0,0.0,0.0,0.0,0.0,0.0,0.0,0.0,0.0,0.0,0.0,0.0,0.0
148093000000,4436,148093000000,odom,base_footprint,-0.620873498212,1.29720020061,-0.0010083224029,-0.00158044300204,-0.000195596553588,0.992571172994,-0.121654964895,1e-05,0.0,0.0,0.0,0.0,0.0,0.0,1e-05,0.0,0.0,0.0,0.0,0.0,0.0,1e+12,0.0,0.0,0.0,0.0,0.0,0.0,1e+12,0.0,0.0,0.0,0.0,0.0,0.0,1e+12,0.0,0.0,0.0,0.0,0.0,0.0,0.001,-4.29695613553e-05,2.750434312e-07,0.0,0.0,0.0,0.00110516632224,0.0,0.0,0.0,0.0,0.0,0.0,0.0,0.0,0.0,0.0,0.0,0.0,0.0,0.0,0.0,0.0,0.0,0.0,0.0,0.0,0.0,0.0,0.0,0.0,0.0,0.0,0.0,0.0,0.0,0.0,0.0,0.0,0.0,0.0,0.0,0.0
148127000000,4437,148127000000,odom,base_footprint,-0.620734508861,1.29723609455,-0.00100724834527,-0.00157773845467,-0.000198692004155,0.992541653035,-0.121895603913,1e-05,0.0,0.0,0.0,0.0,0.0,0.0,1e-05,0.0,0.0,0.0,0.0,0.0,0.0,1e+12,0.0,0.0,0.0,0.0,0.0,0.0,1e+12,0.0,0.0,0.0,0.0,0.0,0.0,1e+12,0.0,0.0,0.0,0.0,0.0,0.0,0.001,-0.00811984350582,-4.6208434555e-05,0.0,0.0,0.0,0.0244385393596,0.0,0.0,0.0,0.0,0.0,0.0,0.0,0.0,0.0,0.0,0.0,0.0,0.0,0.0,0.0,0.0,0.0,0.0,0.0,0.0,0.0,0.0,0.0,0.0,0.0,0.0,0.0,0.0,0.0,0.0,0.0,0.0,0.0,0.0,0.0,0.0
148160000000,4438,148160000000,odom,base_footprint,-0.620347971939,1.29733676849,-0.00100726685014,-0.00157769247222,-0.000199448029263,0.992482726638,-0.122374459884,1e-05,0.0,0.0,0.0,0.0,0.0,0.0,1e-05,0.0,0.0,0.0,0.0,0.0,0.0,1e+12,0.0,0.0,0.0,0.0,0.0,0.0,1e+12,0.0,0.0,0.0,0.0,0.0,0.0,1e+12,0.0,0.0,0.0,0.0,0.0,0.0,0.001,-0.0157858418544,-0.000124455609277,0.0,0.0,0.0,0.029798174281,0.0,0.0,0.0,0.0,0.0,0.0,0.0,0.0,0.0,0.0,0.0,0.0,0.0,0.0,0.0,0.0,0.0,0.0,0.0,0.0,0.0,0.0,0.0,0.0,0.0,0.0,0.0,0.0,0.0,0.0,0.0,0.0,0.0,0.0,0.0,0.0
148193000000,4439,148193000000,odom,base_footprint,-0.619720289135,1.29749398974,-0.00100729427221,-0.0015776864305,-0.000199926894441,0.992440772099,-0.122714240455,1e-05,0.0,0.0,0.0,0.0,0.0,0.0,1e-05,0.0,0.0,0.0,0.0,0.0,0.0,1e+12,0.0,0.0,0.0,0.0,0.0,0.0,1e+12,0.0,0.0,0.0,0.0,0.0,0.0,1e+12,0.0,0.0,0.0,0.0,0.0,0.0,0.001,-0.0231056377524,0.000165210104867,0.0,0.0,0.0,0.00634472788574,0.0,0.0,0.0,0.0,0.0,0.0,0.0,0.0,0.0,0.0,0.0,0.0,0.0,0.0,0.0,0.0,0.0,0.0,0.0,0.0,0.0,0.0,0.0,0.0,0.0,0.0,0.0,0.0,0.0,0.0,0.0,0.0,0.0,0.0,0.0,0.0
148227000000,4440,148227000000,odom,base_footprint,-0.618842182473,1.29770974815,-0.00100732981228,-0.00157783120009,-0.000199227735898,0.992488238736,-0.12232974588,1e-05,0.0,0.0,0.0,0.0,0.0,0.0,1e-05,0.0,0.0,0.0,0.0,0.0,0.0,1e+12,0.0,0.0,0.0,0.0,0.0,0.0,1e+12,0.0,0.0,0.0,0.0,0.0,0.0,1e+12,0.0,0.0,0.0,0.0,0.0,0.0,0.001,-0.0296777216463,0.000100967577021,0.0,0.0,0.0,-0.0527896111337,0.0,0.0,0.0,0.0,0.0,0.0,0.0,0.0,0.0,0.0,0.0,0.0,0.0,0.0,0.0,0.0,0.0,0.0,0.0,0.0,0.0,0.0,0.0,0.0,0.0,0.0,0.0,0.0,0.0,0.0,0.0,0.0,0.0,0.0,0.0,0.0
148260000000,4441,148260000000,odom,base_footprint,-0.617782947972,1.29797031307,-0.00100648089325,-0.00157499081911,-0.000193853903587,0.992657673807,-0.120947196979,1e-05,0.0,0.0,0.0,0.0,0.0,0.0,1e-05,0.0,0.0,0.0,0.0,0.0,0.0,1e+12,0.0,0.0,0.0,0.0,0.0,0.0,1e+12,0.0,0.0,0.0,0.0,0.0,0.0,1e+12,0.0,0.0,0.0,0.0,0.0,0.0,0.001,-0.036790475535,7.82135700918e-05,0.0,0.0,0.0,-0.112697174289,0.0,0.0,0.0,0.0,0.0,0.0,0.0,0.0,0.0,0.0,0.0,0.0,0.0,0.0,0.0,0.0,0.0,0.0,0.0,0.0,0.0,0.0,0.0,0.0,0.0,0.0,0.0,0.0,0.0,0.0,0.0,0.0,0.0,0.0,0.0,0.0
148293000000,4442,148293000000,odom,base_footprint,-0.616436465725,1.29829786462,-0.0010065627773,-0.00157572502804,-0.000190223763093,0.992932470028,-0.118670092565,1e-05,0.0,0.0,0.0,0.0,0.0,0.0,1e-05,0.0,0.0,0.0,0.0,0.0,0.0,1e+12,0.0,0.0,0.0,0.0,0.0,0.0,1e+12,0.0,0.0,0.0,0.0,0.0,0.0,1e+12,0.0,0.0,0.0,0.0,0.0,0.0,0.001,-0.0474579165762,5.46937174324e-05,0.0,0.0,0.0,-0.162065912329,0.0,0.0,0.0,0.0,0.0,0.0,0.0,0.0,0.0,0.0,0.0,0.0,0.0,0.0,0.0,0.0,0.0,0.0,0.0,0.0,0.0,0.0,0.0,0.0,0.0,0.0,0.0,0.0,0.0,0.0,0.0,0.0,0.0,0.0,0.0,0.0
148327000000,4443,148327000000,odom,base_footprint,-0.614626861427,1.29872848189,-0.00100667470127,-0.00157669723703,-0.000185292411543,0.993297882412,-0.115571607621,1e-05,0.0,0.0,0.0,0.0,0.0,0.0,1e-05,0.0,0.0,0.0,0.0,0.0,0.0,1e+12,0.0,0.0,0.0,0.0,0.0,0.0,1e+12,0.0,0.0,0.0,0.0,0.0,0.0,1e+12,0.0,0.0,0.0,0.0,0.0,0.0,0.001,-0.0621475358143,4.81470874741e-05,0.0,0.0,0.0,-0.202086168797,0.0,0.0,0.0,0.0,0.0,0.0,0.0,0.0,0.0,0.0,0.0,0.0,0.0,0.0,0.0,0.0,0.0,0.0,0.0,0.0,0.0,0.0,0.0,0.0,0.0,0.0,0.0,0.0,0.0,0.0,0.0,0.0,0.0,0.0,0.0,0.0
148360000000,4444,148360000000,odom,base_footprint,-0.61235874715,1.29925340166,-0.00100717013127,-0.00157902018954,-0.00017879036407,0.993696212695,-0.112095100721,1e-05,0.0,0.0,0.0,0.0,0.0,0.0,1e-05,0.0,0.0,0.0,0.0,0.0,0.0,1e+12,0.0,0.0,0.0,0.0,0.0,0.0,1e+12,0.0,0.0,0.0,0.0,0.0,0.0,1e+12,0.0,0.0,0.0,0.0,0.0,0.0,0.001,-0.0773307474384,3.4102364847e-05,0.0,0.0,0.0,-0.199129861232,0.0,0.0,0.0,0.0,0.0,0.0,0.0,0.0,0.0,0.0,0.0,0.0,0.0,0.0,0.0,0.0,0.0,0.0,0.0,0.0,0.0,0.0,0.0,0.0,0.0,0.0,0.0,0.0,0.0,0.0,0.0,0.0,0.0,0.0,0.0,0.0
148393000000,4445,148393000000,odom,base_footprint,-0.609664465403,1.29985963641,-0.00100724803627,-0.00157972886752,-0.00017476493871,0.993984900756,-0.109505666445,1e-05,0.0,0.0,0.0,0.0,0.0,0.0,1e-05,0.0,0.0,0.0,0.0,0.0,0.0,1e+12,0.0,0.0,0.0,0.0,0.0,0.0,1e+12,0.0,0.0,0.0,0.0,0.0,0.0,1e+12,0.0,0.0,0.0,0.0,0.0,0.0,0.001,-0.0899625760841,3.0650729676e-05,0.0,0.0,0.0,-0.116854445759,0.0,0.0,0.0,0.0,0.0,0.0,0.0,0.0,0.0,0.0,0.0,0.0,0.0,0.0,0.0,0.0,0.0,0.0,0.0,0.0,0.0,0.0,0.0,0.0,0.0,0.0,0.0,0.0,0.0,0.0,0.0,0.0,0.0,0.0,0.0,0.0
148427000000,4446,148427000000,odom,base_footprint,-0.606276000328,1.30060623391,-0.00100732808757,-0.00158034194271,-0.000171527270308,0.994219677528,-0.107353183067,1e-05,0.0,0.0,0.0,0.0,0.0,0.0,1e-05,0.0,0.0,0.0,0.0,0.0,0.0,1e+12,0.0,0.0,0.0,0.0,0.0,0.0,1e+12,0.0,0.0,0.0,0.0,0.0,0.0,1e+12,0.0,0.0,0.0,0.0,0.0,0.0,0.001,-0.112347670514,3.03064396637e-05,0.0,0.0,0.0,-0.121520312634,0.0,0.0,0.0,0.0,0.0,0.0,0.0,0.0,0.0,0.0,0.0,0.0,0.0,0.0,0.0,0.0,0.0,0.0,0.0,0.0,0.0,0.0,0.0,0.0,0.0,0.0,0.0,0.0,0.0,0.0,0.0,0.0,0.0,0.0,0.0,0.0
148460000000,4447,148460000000,odom,base_footprint,-0.602402634677,1.30144564486,-0.00100737775103,-0.00158067188653,-0.000169820755812,0.994345023808,-0.106185904269,1e-05,0.0,0.0,0.0,0.0,0.0,0.0,1e-05,0.0,0.0,0.0,0.0,0.0,0.0,1e+12,0.0,0.0,0.0,0.0,0.0,0.0,1e+12,0.0,0.0,0.0,0.0,0.0,0.0,1e+12,0.0,0.0,0.0,0.0,0.0,0.0,0.001,-0.12767001319,1.13318731347e-05,0.0,0.0,0.0,-0.0216922356009,0.0,0.0,0.0,0.0,0.0,0.0,0.0,0.0,0.0,0.0,0.0,0.0,0.0,0.0,0.0,0.0,0.0,0.0,0.0,0.0,0.0,0.0,0.0,0.0,0.0,0.0,0.0,0.0,0.0,0.0,0.0,0.0,0.0,0.0,0.0,0.0
148493000000,4448,148493000000,odom,base_footprint,-0.598007783958,1.30239627251,-0.00100743523396,-0.00158073766994,-0.000170884860783,0.994284802373,-0.106748320068,1e-05,0.0,0.0,0.0,0.0,0.0,0.0,1e-05,0.0,0.0,0.0,0.0,0.0,0.0,1e+12,0.0,0.0,0.0,0.0,0.0,0.0,1e+12,0.0,0.0,0.0,0.0,0.0,0.0,1e+12,0.0,0.0,0.0,0.0,0.0,0.0,0.001,-0.144551371169,2.06950615668e-06,0.0,0.0,0.0,0.0885495815075,0.0,0.0,0.0,0.0,0.0,0.0,0.0,0.0,0.0,0.0,0.0,0.0,0.0,0.0,0.0,0.0,0.0,0.0,0.0,0.0,0.0,0.0,0.0,0.0,0.0,0.0,0.0,0.0,0.0,0.0,0.0,0.0,0.0,0.0,0.0,0.0
148527000000,4449,148527000000,odom,base_footprint,-0.593316967628,1.30342716164,-0.00100749527375,-0.0015802929629,-0.0001750568543,0.994021714933,-0.109170977238,1e-05,0.0,0.0,0.0,0.0,0.0,0.0,1e-05,0.0,0.0,0.0,0.0,0.0,0.0,1e+12,0.0,0.0,0.0,0.0,0.0,0.0,1e+12,0.0,0.0,0.0,0.0,0.0,0.0,1e+12,0.0,0.0,0.0,0.0,0.0,0.0,0.001,-0.140544379892,-4.1811897691e-06,0.0,0.0,0.0,0.149855500331,0.0,0.0,0.0,0.0,0.0,0.0,0.0,0.0,0.0,0.0,0.0,0.0,0.0,0.0,0.0,0.0,0.0,0.0,0.0,0.0,0.0,0.0,0.0,0.0,0.0,0.0,0.0,0.0,0.0,0.0,0.0,0.0,0.0,0.0,0.0,0.0
148560000000,4450,148560000000,odom,base_footprint,-0.588791189557,1.30444565138,-0.00100747281623,-0.00157978810786,-0.000178943709224,0.993748654513,-0.111629225123,1e-05,0.0,0.0,0.0,0.0,0.0,0.0,1e-05,0.0,0.0,0.0,0.0,0.0,0.0,1e+12,0.0,0.0,0.0,0.0,0.0,0.0,1e+12,0.0,0.0,0.0,0.0,0.0,0.0,1e+12,0.0,0.0,0.0,0.0,0.0,0.0,0.001,-0.140600879063,-4.18743915276e-06,0.0,0.0,0.0,0.149943206697,0.0,0.0,0.0,0.0,0.0,0.0,0.0,0.0,0.0,0.0,0.0,0.0,0.0,0.0,0.0,0.0,0.0,0.0,0.0,0.0,0.0,0.0,0.0,0.0,0.0,0.0,0.0,0.0,0.0,0.0,0.0,0.0,0.0,0.0,0.0,0.0
148593000000,4451,148593000000,odom,base_footprint,-0.584268827897,1.30548691217,-0.00100748357099,-0.00157937034906,-0.000182872163259,0.993469347987,-0.114088241098,1e-05,0.0,0.0,0.0,0.0,0.0,0.0,1e-05,0.0,0.0,0.0,0.0,0.0,0.0,1e+12,0.0,0.0,0.0,0.0,0.0,0.0,1e+12,0.0,0.0,0.0,0.0,0.0,0.0,1e+12,0.0,0.0,0.0,0.0,0.0,0.0,0.001,-0.140656530667,-4.27008390078e-06,0.0,0.0,0.0,0.150030493651,0.0,0.0,0.0,0.0,0.0,0.0,0.0,0.0,0.0,0.0,0.0,0.0,0.0,0.0,0.0,0.0,0.0,0.0,0.0,0.0,0.0,0.0,0.0,0.0,0.0,0.0,0.0,0.0,0.0,0.0,0.0,0.0,0.0,0.0,0.0,0.0
148627000000,4452,148627000000,odom,base_footprint,-0.579495111705,1.30660945788,-0.00100753175955,-0.00157911151574,-0.000186343439772,0.993220825061,-0.116231942027,1e-05,0.0,0.0,0.0,0.0,0.0,0.0,1e-05,0.0,0.0,0.0,0.0,0.0,0.0,1e+12,0.0,0.0,0.0,0.0,0.0,0.0,1e+12,0.0,0.0,0.0,0.0,0.0,0.0,1e+12,0.0,0.0,0.0,0.0,0.0,0.0,0.001,-0.144571774969,-3.37369685752e-06,0.0,0.0,0.0,0.12491472597,0.0,0.0,0.0,0.0,0.0,0.0,0.0,0.0,0.0,0.0,0.0,0.0,0.0,0.0,0.0,0.0,0.0,0.0,0.0,0.0,0.0,0.0,0.0,0.0,0.0,0.0,0.0,0.0,0.0,0.0,0.0,0.0,0.0,0.0,0.0,0.0
