%time,field.x,field.y,field.z
18070000000,-2.00000133296,-0.499989336074,-0.00100739914402
18102000000,-2.00000132601,-0.499989316937,-0.00100739914403
18134000000,-2.00000131906,-0.499989297801,-0.00100739914404
18168000000,-2.00000131191,-0.499989278085,-0.00100739914404
18201000000,-2.00000130496,-0.499989258948,-0.00100739914405
18233000000,-2.00000129801,-0.499989239811,-0.00100739914406
18267000000,-2.00000129085,-0.499989220095,-0.00100739914407
18301000000,-2.0000012839,-0.499989200958,-0.00100739914407
18334000000,-2.00000127696,-0.499989181822,-0.00100739914408
18368000000,-2.0000012698,-0.499989162105,-0.00100739914409
18401000000,-2.00000126285,-0.499989142968,-0.0010073991441
18433000000,-2.0000012559,-0.499989123832,-0.0010073991441
18468000000,-2.00000124874,-0.499989104115,-0.00100739914411
18500000000,-2.0000012418,-0.499989084978,-0.00100739914412
18533000000,-2.00000123485,-0.499989065841,-0.00100739914413
18567000000,-2.00000122769,-0.499989046124,-0.00100739914413
18600000000,-2.00000122074,-0.499989026987,-0.00100739914414
18633000000,-2.0000012138,-0.49998900785,-0.00100739914415
18667000000,-2.00000120664,-0.499988988133,-0.00100739914416
18700000000,-2.00000119969,-0.499988968996,-0.00100739914416
18733000000,-2.00000119274,-0.499988949859,-0.00100739914417
18769000000,-2.00000118558,-0.499988930142,-0.00100739914418
18801000000,-2.00000117864,-0.499988911004,-0.00100739914419
18833000000,-2.00000117169,-0.499988891867,-0.00100739914419
18867000000,-2.00000116453,-0.49998887215,-0.0010073991442
18900000000,-2.00000115758,-0.499988853012,-0.00100739914421
18934000000,-2.00000115063,-0.499988833875,-0.00100739914422
18967000000,-2.00000114348,-0.499988814158,-0.00100739914423
19001000000,-2.00000113653,-0.49998879502,-0.00100739914423
19033000000,-2.00000112958,-0.499988775882,-0.00100739914424
19067000000,-2.00000112242,-0.499988756165,-0.00100739914425
19101000000,-2.00000111547,-0.499988737027,-0.00100739914426
19133000000,-2.00000110853,-0.49998871789,-0.00100739914426
19167000000,-2.00000110137,-0.499988698172,-0.00100739914427
19200000000,-2.00000109442,-0.499988679034,-0.00100739914428
19234000000,-2.00000108747,-0.499988659896,-0.00100739914429
19267000000,-2.00000108031,-0.499988640179,-0.00100739914429
19300000000,-2.00000107336,-0.499988621041,-0.0010073991443
19334000000,-2.00000106642,-0.499988601903,-0.00100739914431
19369000000,-2.00000105926,-0.499988582185,-0.00100739914432
19400000000,-2.00000105231,-0.499988563047,-0.00100739914432
19433000000,-2.00000104536,-0.499988543909,-0.00100739914433
19467000000,-2.0000010382,-0.499988524191,-0.00100739914434
19501000000,-2.00000103125,-0.499988505053,-0.00100739914435
19533000000,-2.00000102431,-0.499988485915,-0.00100739914435
19567000000,-2.00000101715,-0.499988466196,-0.00100739914436
19600000000,-2.0000010102,-0.499988447058,-0.00100739914437
19634000000,-2.00000100325,-0.49998842792,-0.00100739914438
19668000000,-2.00000099609,-0.499988408202,-0.00100739914438
19700000000,-2.00000098914,-0.499988389063,-0.00100739914439
19733000000,-2.0000009822,-0.499988369925,-0.0010073991444
19768000000,-2.00000097504,-0.499988350206,-0.00100739914441
19800000000,-2.00000096809,-0.499988331068,-0.00100739914441
19833000000,-2.00000096114,-0.499988311929,-0.00100739914442
19867000000,-2.00000095398,-0.499988292211,-0.00100739914443
19900000000,-1.99950392866,-0.499988109128,-0.00100731361942
19933000000,-1.99803871286,-0.499988019902,-0.00100738323545
19967000000,-1.9955151549,-0.499987923734,-0.00100749275583
20001000000,-1.99208891143,-0.499987879335,-0.00100763691639
20033000000,-1.98772654217,-0.499987974805,-0.0010077851774
20067000000,-1.98231597961,-0.499988380478,-0.00100793296994
20100000000,-1.97653215414,-0.49998419917,-0.00100804076758
20134000000,-1.97088940904,-0.499965746726,-0.00100732376643
20167000000,-1.96542832417,-0.499922768636,-0.00100730652266
20200000000,-1.96011599423,-0.499850435815,-0.00100826196235
20233000000,-1.9547639262,-0.499743854387,-0.00100638352258
20268000000,-1.94933870529,-0.499603442399,-0.00100637211489
20300000000,-1.94396597057,-0.499421938536,-0.00100643958851
20333000000,-1.9383389137,-0.499174948017,-0.00100646257012
20367000000,-1.93210848513,-0.498820714382,-0.00100661123189
20400000000,-1.92548674573,-0.498339245545,-0.0010068087672
20433000000,-1.91819340866,-0.497674223341,-0.00100706817671
20467000000,-1.90995932011,-0.496750813188,-0.00100791670706
20501000000,-1.90207823899,-0.495686389575,-0.00100776836695
20534000000,-1.89442654978,-0.494454206929,-0.00100795256512
20567000000,-1.88651992639,-0.492959653783,-0.00100674963889
20602000000,-1.8787749585,-0.491273718589,-0.0010067645657
20633000000,-1.87143080781,-0.48945940919,-0.00100781768149
20667000000,-1.86492083024,-0.487646155853,-0.00100763606954
20701000000,-1.85966804076,-0.486016211804,-0.00100746173624
20733000000,-1.85545464465,-0.484577318887,-0.001007313347
20767000000,-1.85201912427,-0.483296131846,-0.00100734047568
20800000000,-1.84855352785,-0.481899816297,-0.00100758255802
20834000000,-1.84425879094,-0.480054032979,-0.0010077193306
20868000000,-1.83907323969,-0.477692532433,-0.00100782124955
20900000000,-1.83350205898,-0.475027263147,-0.00100791401503
20933000000,-1.82779992933,-0.472188369102,-0.00100683925392
20968000000,-1.82179043039,-0.469070172775,-0.00100695624861
21001000000,-1.81616625584,-0.466026142436,-0.00100799074336
21033000000,-1.81107202331,-0.463164076365,-0.00100804329901
21067000000,-1.80638950145,-0.460460610461,-0.00100808680415
21100000000,-1.80236239961,-0.458095514832,-0.00100797509631
21133000000,-1.7984112501,-0.455747395527,-0.00100802739193
21167000000,-1.79435316847,-0.453307409439,-0.00100807776772
21200000000,-1.79019329251,-0.450774157746,-0.00100805667916
21233000000,-1.78603067719,-0.448186941321,-0.0010066850186
21268000000,-1.78208917284,-0.445707132978,-0.0010065783936
21301000000,-1.77844168027,-0.4434084882,-0.00100722751706
21333000000,-1.77464902254,-0.441030211184,-0.0010073419037
21367000000,-1.77050307029,-0.438452964119,-0.00100801545761
21400000000,-1.76621885071,-0.435819843312,-0.00100762137301
21433000000,-1.76155825493,-0.433004462981,-0.00100663139309
21467000000,-1.75624555822,-0.429877091201,-0.00100677135093
21501000000,-1.75043070801,-0.426563669685,-0.00100693603423
21533000000,-1.74386025268,-0.422953320976,-0.00100715722495
21567000000,-1.73627230371,-0.41894097538,-0.00100762391363
21601000000,-1.72864744141,-0.415048962438,-0.00100707554315
21634000000,-1.72144178203,-0.411481338304,-0.00100703002511
21667000000,-1.71447618362,-0.408166267892,-0.00100811832132
21701000000,-1.70809159576,-0.405277802089,-0.00100789498443
21733000000,-1.70217401204,-0.402759500396,-0.00100786583764
21768000000,-1.69644333687,-0.400481193933,-0.00100781238835
21800000000,-1.69130057055,-0.398563073517,-0.00100774918419
21834000000,-1.68665615452,-0.396924402628,-0.00100768995915
21868000000,-1.68228764182,-0.395454077327,-0.00100752250534
21901000000,-1.67813241344,-0.394109020853,-0.00100752549986
21933000000,-1.67395336714,-0.392794006632,-0.00100757903029
21967000000,-1.66963124632,-0.391474344449,-0.0010076368026
22001000000,-1.6652093831,-0.390165309462,-0.00100744963311
22033000000,-1.66068864124,-0.388863708771,-0.00100781602286
22067000000,-1.65602056087,-0.387557625086,-0.00100793958815
22100000000,-1.65125185516,-0.386265478664,-0.001008128545
22133000000,-1.64621713155,-0.384951328284,-0.00100726299721
22168000000,-1.64092767088,-0.383630936522,-0.00100730768861
22201000000,-1.63588647293,-0.382425944047,-0.00100705509185
22233000000,-1.63089440547,-0.381282054531,-0.00100728984808
22268000000,-1.62552797009,-0.380089617064,-0.00100646768984
22300000000,-1.62045205412,-0.378986823369,-0.00100819873773
22333000000,-1.61601144896,-0.378047070282,-0.00100816156897
22368000000,-1.61219022971,-0.377267058364,-0.00100813230438
22401000000,-1.60892473629,-0.376624571361,-0.00100775832331
22433000000,-1.60533573194,-0.375937849274,-0.00100676265176
22467000000,-1.60085725539,-0.375098329595,-0.00100689238772
22500000000,-1.59654800079,-0.374301839254,-0.00100736123293
22533000000,-1.59300443501,-0.373659436339,-0.00100768667786
22568000000,-1.59045149678,-0.373206346444,-0.00100759453976
22601000000,-1.58903805985,-0.372960452153,-0.00100760071736
22634000000,-1.58868275045,-0.372899404963,-0.00100761073636
22669000000,-1.58939515811,-0.373017730983,-0.00100766365923
22700000000,-1.59111258761,-0.373298750642,-0.00100775023788
22734000000,-1.59383206094,-0.373736556778,-0.00100783702487
22768000000,-1.59765157862,-0.374340468738,-0.00100793882765
22802000000,-1.60186397553,-0.374985769343,-0.00100787790383
22834000000,-1.60638897826,-0.375632203542,-0.0010077958432
22869000000,-1.61112779198,-0.376250398447,-0.00100793893484
22900000000,-1.61562470521,-0.376776554805,-0.00100766035471
22933000000,-1.62001385592,-0.377213623949,-0.00100815642559
22967000000,-1.62453605459,-0.377579839238,-0.00100715373746
23001000000,-1.62917890336,-0.377872482285,-0.00100735146743
23034000000,-1.63424151586,-0.378111638327,-0.00100765680539
23068000000,-1.63958317336,-0.378287545983,-0.00100798005694
23101000000,-1.64444962035,-0.378382167333,-0.00100703078541
23133000000,-1.64899364364,-0.378426580675,-0.00100787351368
23167000000,-1.65378154093,-0.378437336788,-0.00100784709536
23201000000,-1.65826032983,-0.378420216094,-0.00100683250072
23234000000,-1.66272139862,-0.378387662146,-0.00100698544727
23267000000,-1.66745500637,-0.378339508061,-0.00100720907524
23300000000,-1.67210158676,-0.378283906659,-0.00100800775486
23333000000,-1.67674562468,-0.378220720068,-0.00100796887653
23368000000,-1.68153093149,-0.378147659457,-0.00100789904721
23400000000,-1.6861624243,-0.37806270909,-0.00100780364329
23433000000,-1.69083450776,-0.377947401048,-0.00100786659014
23468000000,-1.69564896941,-0.377797957514,-0.00100789368367
23501000000,-1.70013369176,-0.377625486798,-0.00100793286325
23534000000,-1.70456691564,-0.377410002463,-0.00100689585406
23567000000,-1.70915121517,-0.377140811779,-0.00100682990027
23600000000,-1.71367499263,-0.376826841801,-0.00100759078282
23633000000,-1.71821255913,-0.376461030706,-0.00100756450395
23667000000,-1.7228841242,-0.376031074803,-0.00100748114586
23700000000,-1.72748318073,-0.375564153353,-0.00100745542523
23733000000,-1.73215066966,-0.375074965342,-0.00100745554921
23767000000,-1.73695884971,-0.374565395815,-0.00100748270087
23800000000,-1.7416682381,-0.37406026473,-0.00100754896956
23833000000,-1.74638038781,-0.373548343505,-0.00100747056206
23867000000,-1.75123773535,-0.37301395871,-0.00100753639468
23900000000,-1.75594494796,-0.372482967404,-0.00100798130628
23934000000,-1.76062618813,-0.371928223771,-0.00100801639487
23968000000,-1.7654464748,-0.371327443724,-0.00100813437003
24000000000,-1.77002526992,-0.37073360039,-0.00100809966291
24033000000,-1.77464389193,-0.370123600573,-0.0010081769187
24067000000,-1.77941597798,-0.369484287743,-0.00100778247011
24100000000,-1.78409984592,-0.368848805972,-0.00100839690762
24134000000,-1.78878346546,-0.368205422467,-0.00100846557254
24167000000,-1.79359266927,-0.367536475064,-0.00100827983277
24201000000,-1.79808315678,-0.366902972111,-0.001006927583
24233000000,-1.80253761215,-0.366252790301,-0.00100717001468
24267000000,-1.80728659138,-0.365530464917,-0.00100785771966
24301000000,-1.81183329294,-0.364807412239,-0.00100773813646
24333000000,-1.81637357766,-0.364054453595,-0.00100760172307
24367000000,-1.82104769783,-0.36324691357,-0.0010075004571
24401000000,-1.82557267659,-0.362425285613,-0.0010074218758
24434000000,-1.83008565436,-0.361545954607,-0.00100737911291
24468000000,-1.83472208937,-0.36057711065,-0.00100736991419
24501000000,-1.83920255621,-0.359575449626,-0.0010073907261
24534000000,-1.84366959533,-0.358510277367,-0.00100743782638
24567000000,-1.84825740928,-0.357346492299,-0.00100752305091
24600000000,-1.85276721538,-0.356140645316,-0.00100764070177
24633000000,-1.85723122407,-0.354898775461,-0.00100775847934
24667000000,-1.86180877123,-0.35357213267,-0.00100789611405
24700000000,-1.86636893396,-0.352202868296,-0.0010071406842
24733000000,-1.8708356558,-0.35082576568,-0.00100776304162
24768000000,-1.87541204868,-0.349376030587,-0.00100792361196
24800000000,-1.87987359383,-0.347924052114,-0.00100793798187
24833000000,-1.88433298706,-0.346432898857,-0.0010080127544
24868000000,-1.88891470766,-0.34485893345,-0.00100799612231
24900000000,-1.89325521026,-0.343335258347,-0.00100786138874
24934000000,-1.89769723711,-0.341759765352,-0.00100778892075
24968000000,-1.90228569163,-0.340117036189,-0.00100786413489
25000000000,-1.90675249661,-0.338502371011,-0.00100778669457
25034000000,-1.9111794476,-0.336883446625,-0.00100806022151
25068000000,-1.91574453428,-0.335195124948,-0.0010080371533
25101000000,-1.92016693282,-0.33354023085,-0.00100797856254
25133000000,-1.92458290768,-0.33186813984,-0.00100792888496
25167000000,-1.92912646932,-0.330127171591,-0.00100786346311
25200000000,-1.93352833131,-0.328427385652,-0.00100758645337
25234000000,-1.93797276392,-0.32671885306,-0.00100769940435
25267000000,-1.9425534634,-0.324961543934,-0.00100773323895
25301000000,-1.94700441604,-0.323254073691,-0.00100790896899
25334000000,-1.95155866167,-0.321496012538,-0.00100788488818
25367000000,-1.95625538779,-0.319670950079,-0.00100680637412
25400000000,-1.96078038662,-0.317904293732,-0.00100761607379
25434000000,-1.9652365791,-0.316161220952,-0.0010076310828
25467000000,-1.96982948817,-0.314362171629,-0.00100763368167
25501000000,-1.97421123028,-0.312636858067,-0.00100764303909
25533000000,-1.97858773821,-0.310887655326,-0.00100767334659
25568000000,-1.98309195627,-0.30905569564,-0.00100773013031
25600000000,-1.98739386587,-0.307284850415,-0.00100775925699
25633000000,-1.99179637432,-0.305481687121,-0.00100791789284
25667000000,-1.99636865313,-0.303627925646,-0.00100796498298
25701000000,-2.00062757436,-0.301924765783,-0.00100786022675
25733000000,-2.00476055274,-0.300312172717,-0.00100700065993
25767000000,-2.00909061455,-0.298669376627,-0.00100704714886
25800000000,-2.01347579457,-0.297048679928,-0.00100743963952
25833000000,-2.01791609897,-0.295418761429,-0.00100784601395
25868000000,-2.02241367534,-0.293760981509,-0.00100783000845
25900000000,-2.02676804165,-0.292155881454,-0.00100750856943
25933000000,-2.03126638217,-0.290532111075,-0.00100766796567
25967000000,-2.03599876245,-0.288880540843,-0.00100766312181
26000000000,-2.0406000561,-0.287331913268,-0.0010076303255
26033000000,-2.04521858513,-0.285835556884,-0.00100765556252
26067000000,-2.04999521794,-0.284348308999,-0.00100770825411
26100000000,-2.05472140338,-0.28294044787,-0.00100792476119
26133000000,-2.0594693087,-0.281597516337,-0.00100805629756
26167000000,-2.06438230545,-0.280284284867,-0.00100794013555
26200000000,-2.06900727326,-0.279114794035,-0.00100640009653
26233000000,-2.07340044996,-0.278054840182,-0.00100636587021
26268000000,-2.07775399776,-0.277041032462,-0.00100635057216
26300000000,-2.08186675679,-0.276114408507,-0.00100763406174
26334000000,-2.08592221584,-0.275220400481,-0.00100751423698
26367000000,-2.09015384408,-0.274322905877,-0.00100645443518
26401000000,-2.0944354657,-0.273446880305,-0.0010073696837
26434000000,-2.09887696712,-0.272562680152,-0.00100783482623
26469000000,-2.10354148136,-0.271655245977,-0.0010080526618
26500000000,-2.10768154303,-0.270867776774,-0.00100770649023
26534000000,-2.11149530953,-0.270150644131,-0.00100713940266
26568000000,-2.11581044861,-0.269333261339,-0.00100716650912
26601000000,-2.11971201297,-0.268579065822,-0.00100759120071
26633000000,-2.12266023128,-0.267997286096,-0.00100764897488
26668000000,-2.12462943545,-0.267601832228,-0.00100765019507
26700000000,-2.12550233364,-0.267423939695,-0.00100767206692
26733000000,-2.12539195889,-0.267447402062,-0.00100771945741
26768000000,-2.12433583141,-0.267670182452,-0.00100778360453
26802000000,-2.12244276788,-0.268073482984,-0.00100786373199
26833000000,-2.11982150099,-0.26863773701,-0.0010079005866
26867000000,-2.11674132536,-0.269306773201,-0.00100799025779
26900000000,-2.11334422961,-0.270045900096,-0.00100810041488
26934000000,-2.10972826736,-0.270834927427,-0.00100823983238
26968000000,-2.10596490124,-0.271656853502,-0.00100731888969
27000000000,-2.10217525389,-0.272488144073,-0.00100718421154
27033000000,-2.09810190843,-0.273388571341,-0.00100724904527
27067000000,-2.09361443529,-0.27438716168,-0.00100736706778
27100000000,-2.08897280058,-0.275424631624,-0.0010065338399
27134000000,-2.08394242099,-0.276532619464,-0.00100662418435
27168000000,-2.07825141865,-0.277745722789,-0.00100693304647
27200000000,-2.07221086796,-0.278975901858,-0.0010069448198
27233000000,-2.06545602002,-0.28027583427,-0.00100717466643
27267000000,-2.05782044493,-0.28164053421,-0.00100784651581
27301000000,-2.05033503992,-0.282847843306,-0.00100774142338
27334000000,-2.04283684949,-0.283900188495,-0.00100789607045
27367000000,-2.03499436095,-0.284826159636,-0.00100681559997
27400000000,-2.0275773999,-0.285529309004,-0.00100674052222
27433000000,-2.02006885052,-0.286034943572,-0.00100682255602
27467000000,-2.01204230664,-0.28633424241,-0.00100729580634
27500000000,-2.00424752898,-0.286377147022,-0.00100730146987
27533000000,-1.99645423734,-0.286167654787,-0.00100739756245
27567000000,-1.98843287764,-0.285687816873,-0.00100761094025
27602000000,-1.98033437398,-0.284937500036,-0.00100771997845
27634000000,-1.97208225031,-0.283923209056,-0.00100816221991
27667000000,-1.96362863912,-0.282623290515,-0.00100795190752
27700000000,-1.95545391568,-0.281112470857,-0.00100783932396
27733000000,-1.94731609969,-0.279361493896,-0.00100784848688
27768000000,-1.93898236351,-0.27731540042,-0.00100791239374
27800000000,-1.93126056289,-0.275189556279,-0.00100668815529
27834000000,-1.92371793558,-0.272904004552,-0.00100729000378
27867000000,-1.91593647247,-0.270308391196,-0.00100820801194
27900000000,-1.90855994593,-0.267629457167,-0.00100717097194
27933000000,-1.9014070328,-0.264836282489,-0.00100831188822
27968000000,-1.89438809149,-0.261847560213,-0.00100828219065
28000000000,-1.88804992757,-0.258945108517,-0.00100820902518
28033000000,-1.88193939545,-0.255961345206,-0.00100772046793
28068000000,-1.87542225117,-0.252546853166,-0.00100682264611
28101000000,-1.86908571738,-0.248996388313,-0.00100694257763
28133000000,-1.86270206311,-0.245229344189,-0.00100711862457
28168000000,-1.85583310937,-0.24099680976,-0.00100741595074
28200000000,-1.84916530685,-0.236721023187,-0.00100772617028
28234000000,-1.84257930665,-0.232285942938,-0.00100775013292
28267000000,-1.83557652469,-0.227371340828,-0.00100675295937
28301000000,-1.82907157866,-0.222627128805,-0.00100782566106
28333000000,-1.82266289334,-0.21778328946,-0.00100747571149
28367000000,-1.81578039316,-0.212441148059,-0.0010075339459
28401000000,-1.80912474171,-0.207160441154,-0.00100769506047
28434000000,-1.8025111064,-0.201813778089,-0.00100792818061
28467000000,-1.79574833952,-0.196241913304,-0.00100813229568
28500000000,-1.78924573446,-0.19077638923,-0.00100832686401
28533000000,-1.78282307315,-0.185260765569,-0.00100794801975
28567000000,-1.77626991451,-0.179508188865,-0.00100863213209
28601000000,-1.77008418246,-0.173959409742,-0.00100819166829
28633000000,-1.76406282478,-0.16843009997,-0.00100817387286
28667000000,-1.75775331473,-0.162527868919,-0.0010077172584
28701000000,-1.75157944239,-0.156668265511,-0.00100748803573
28734000000,-1.74544418317,-0.150763790529,-0.00100739319648
28767000000,-1.7391636676,-0.144633640416,-0.00100739999983
28800000000,-1.7331098942,-0.138639443784,-0.00100750413812
28833000000,-1.72709721896,-0.132599631811,-0.00100771476754
28867000000,-1.72094650432,-0.126330222823,-0.00100802371604
28900000000,-1.71515853934,-0.120342489578,-0.00100831736649
28933000000,-1.7093896245,-0.114295079341,-0.00100768695186
28967000000,-1.70336972414,-0.107922030463,-0.00100850163602
29000000000,-1.69761847699,-0.101779763747,-0.00100816463102
29033000000,-1.69192158806,-0.0956518176673,-0.0010070179669
29069000000,-1.68595514376,-0.0892011041559,-0.00100787757978
29100000000,-1.68030019438,-0.0830671018567,-0.00100763187263
29133000000,-1.67454626987,-0.0768214153479,-0.00100748370174
29167000000,-1.6685395187,-0.0703182740597,-0.00100746953491
29200000000,-1.66271408491,-0.0640194311529,-0.00100753716044
29233000000,-1.65688961298,-0.0577154093858,-0.00100766969186
29267000000,-1.65089086302,-0.0512162166802,-0.00100788215298
29300000000,-1.64507710449,-0.0449067252514,-0.00100801100284
29334000000,-1.63928220304,-0.0386011800643,-0.00100777081571
29367000000,-1.63331320056,-0.0320907348492,-0.00100818982011
29400000000,-1.62755043171,-0.0257859275409,-0.00100828021553
29433000000,-1.62180677784,-0.0194712035286,-0.00100786858979
29467000000,-1.61590974164,-0.0129394771135,-0.00100789981302
29500000000,-1.61030451687,-0.00669779823011,-0.001007640682
29533000000,-1.60460328881,-0.000342561579081,-0.0010074984995
29568000000,-1.59870797232,0.00623721037165,-0.00100747442173
29600000000,-1.59304980049,0.0125442932824,-0.00100754311766
29634000000,-1.58729663452,0.0189120598555,-0.00100771505329
29668000000,-1.58132177755,0.0254789984966,-0.00100793945465
29701000000,-1.57550341415,0.0318309383885,-0.00100823671259
29735000000,-1.56967568804,0.038152585561,-0.00100804001128
29767000000,-1.56364650483,0.0446489253481,-0.00100835374752
29801000000,-1.55780540235,0.0509004463935,-0.00100743871567
29834000000,-1.55191852204,0.0571531381265,-0.00100821257465
29868000000,-1.54581318541,0.0635857682125,-0.00100788380752
29900000000,-1.5399946554,0.0696795800796,-0.00100775497239
29933000000,-1.53458021951,0.0753628515147,-0.00100741758401
29967000000,-1.52915264801,0.0811059315727,-0.00100741973061
30000000000,-1.52395431544,0.0866365351142,-0.00100715016198
30034000000,-1.51923101541,0.0916433563787,-0.00100701735707
30068000000,-1.51500447227,0.0961089982299,-0.00100728791492
30100000000,-1.51137871002,0.0999452561066,-0.00100741480727
30133000000,-1.50812550412,0.103419930439,-0.00100793332923
30168000000,-1.50484205116,0.106974631195,-0.00100809257819
30200000000,-1.50157288109,0.110555251027,-0.00100708796276
30233000000,-1.4983003747,0.114163425643,-0.0010083609887
30267000000,-1.4950997703,0.117717663176,-0.0010075774789
30300000000,-1.49224347729,0.120922904356,-0.00100754966411
30333000000,-1.48962669872,0.123897764025,-0.00100754029686
30367000000,-1.48717203358,0.126729876292,-0.00100754177897
30400000000,-1.48501721045,0.129253497488,-0.00100754573384
30433000000,-1.48307700108,0.13156575328,-0.00100756295137
30467000000,-1.48128845599,0.133739279026,-0.00100636728985
30501000000,-1.47975473698,0.135642317045,-0.00100649150501
30533000000,-1.47841511594,0.137346774384,-0.00100649450395
30567000000,-1.47706752197,0.13910962937,-0.00100716706992
30600000000,-1.47567282632,0.140976221455,-0.00100717751449
30633000000,-1.4742037462,0.142972776647,-0.00100836335311
30667000000,-1.47262361888,0.145140137962,-0.00100721685353
30700000000,-1.47104218595,0.147339644213,-0.0010071625574
30733000000,-1.46941751506,0.149642418269,-0.00100636641816
30767000000,-1.46760896812,0.152244484221,-0.00100646088682
30800000000,-1.46562245168,0.155153496945,-0.0010065858025
30833000000,-1.46331976523,0.158594432095,-0.00100677600471
30868000000,-1.46054685996,0.162834743123,-0.00100703829102
30900000000,-1.45743187888,0.167717568617,-0.00100733128429
30934000000,-1.45400186097,0.173216708416,-0.00100748491728
30967000000,-1.45016701728,0.179455332209,-0.00100765522571
31000000000,-1.44644406822,0.185547626299,-0.00100725971197
31033000000,-1.44303141436,0.191126596239,-0.00100807600915
31067000000,-1.43961903768,0.196701511013,-0.00100827726509
31101000000,-1.43621230939,0.202257219529,-0.00100830073952
31133000000,-1.43269823081,0.207963293706,-0.00100841315615
31167000000,-1.42906392403,0.213861452856,-0.00100667148571
31201000000,-1.42544236046,0.219686104794,-0.00100644850694
31233000000,-1.42161473622,0.225779156886,-0.00100719223121
31267000000,-1.41737781953,0.23242560145,-0.00100727282592
31301000000,-1.41288236,0.239329163815,-0.00100736175714
31333000000,-1.40805257253,0.246543541164,-0.00100751295124
31368000000,-1.40295558081,0.253926223,-0.00100758314471
31400000000,-1.39800745265,0.260898351772,-0.00100725642272
31433000000,-1.39298047228,0.267831349858,-0.00100768357321
31468000000,-1.38765539006,0.275014068776,-0.00100815043748
31502000000,-1.38243501821,0.281897133397,-0.00100757719888
31533000000,-1.37712372414,0.288741586207,-0.00100822369581
31567000000,-1.37155988008,0.295743863316,-0.001008016252
31600000000,-1.36618962717,0.302343369505,-0.00100699339676
31633000000,-1.36086845366,0.308711191821,-0.00100808574766
31669000000,-1.35531360196,0.315171172221,-0.00100791587404
31701000000,-1.34978103288,0.321419736417,-0.00100687175487
31734000000,-1.34408429608,0.327669595492,-0.00100702309813
31767000000,-1.3379935112,0.334173130096,-0.00100800677557
31800000000,-1.33216312229,0.340243319432,-0.00100764882519
31833000000,-1.32639127069,0.346096365863,-0.00100775972351
31868000000,-1.32035956783,0.352054028382,-0.00100823332973
31901000000,-1.31421242758,0.357971540543,-0.00100787992937
31933000000,-1.30788841877,0.363918379182,-0.00100756620816
31968000000,-1.30129792413,0.369969419921,-0.00100747242589
32001000000,-1.29483746591,0.37576532906,-0.00100750482856
32033000000,-1.28831213442,0.381492641388,-0.00100764736513
32068000000,-1.28152209023,0.387320827878,-0.00100793815033
32101000000,-1.27486711631,0.392905412668,-0.00100828646566
32133000000,-1.26815346903,0.398413337193,-0.00100847675539
32169000000,-1.26118904481,0.404004156434,-0.00100829712508
32200000000,-1.25440905676,0.409331188589,-0.00100780177277
32234000000,-1.24753450972,0.414605405316,-0.00100807802726
32268000000,-1.2403961594,0.419965128585,-0.00100781780467
32301000000,-1.23341413227,0.425095508557,-0.00100758868859
32333000000,-1.22637843359,0.430156578461,-0.00100747999599
32367000000,-1.21907380702,0.435298076946,-0.00100747394477
32400000000,-1.21193336878,0.440216553189,-0.00100759305227
32434000000,-1.20474279408,0.445066055683,-0.00100785910404
32467000000,-1.19728524475,0.449988094196,-0.00100806157152
32501000000,-1.18999516788,0.454703301184,-0.00100799385796
32533000000,-1.18270141625,0.459338852419,-0.00100816094356
32567000000,-1.17514113959,0.464059900255,-0.00100813803992
32601000000,-1.16775525078,0.46858438082,-0.00100791283419
32633000000,-1.1603247359,0.473038415064,-0.00100792377828
32669000000,-1.15263401764,0.47754618621,-0.00100742939861
32701000000,-1.14516594971,0.48183057299,-0.00100770600428
32733000000,-1.13763054177,0.486074841921,-0.00100770266763
32767000000,-1.12983096461,0.490386835323,-0.00100780533876
32800000000,-1.12222911733,0.494512317668,-0.00100795610523
32833000000,-1.11459841508,0.498579260297,-0.00100799696225
32867000000,-1.10672618852,0.502699258558,-0.00100736780981
32900000000,-1.09908617896,0.506621181365,-0.00100744459871
32933000000,-1.09135082876,0.510507313705,-0.00100778796241
32967000000,-1.08334418386,0.51444022057,-0.00100762861548
33000000000,-1.07553972965,0.518188816742,-0.00100762277315
33033000000,-1.06770183068,0.521871762622,-0.00100770756
33068000000,-1.05959339419,0.525596565071,-0.00100783914817
33101000000,-1.05167243907,0.52914814699,-0.00100785600819
33133000000,-1.04373609149,0.532612227587,-0.0010079697088
33168000000,-1.03551258878,0.536103687425,-0.00100829769702
33201000000,-1.02753753143,0.539392752349,-0.00100805114146
33233000000,-1.0195343827,0.542592394132,-0.00100747189402
33267000000,-1.01120011332,0.545816116504,-0.00100797516719
33301000000,-1.00309148788,0.548854147057,-0.00100765067893
33334000000,-0.994953766569,0.551816445865,-0.00100747789886
33367000000,-0.986537816817,0.554789691723,-0.00100742996288
33400000000,-0.978337120846,0.557598429034,-0.00100750032631
33433000000,-0.970106812075,0.560329291695,-0.00100769081816
33467000000,-0.9615973942,0.563060957042,-0.00100804178764
33500000000,-0.953323636539,0.565633450911,-0.00100831819834
33534000000,-0.945038321686,0.568135127515,-0.00100834961875
33567000000,-0.936515040843,0.570632747561,-0.0010077300828
33601000000,-0.928185197678,0.572998124441,-0.00100852005395
33634000000,-0.919840533054,0.575287809947,-0.00100811053674
33667000000,-0.911221296823,0.577568546393,-0.00100777177302
33700000000,-0.902833643533,0.579705927202,-0.00100759503782
33734000000,-0.894424349788,0.581767635708,-0.00100750724734
33768000000,-0.885737977849,0.583812470266,-0.00100752990723
33800000000,-0.877293680395,0.585721566696,-0.0010076871166
33834000000,-0.868832578803,0.587561034484,-0.00100792065456
33868000000,-0.860101466295,0.589382649374,-0.00100804562605
33901000000,-0.851629115689,0.591077997535,-0.00100778162193
33935000000,-0.843148520293,0.5927059848,-0.00100825503632
33967000000,-0.834382789714,0.594315899231,-0.00100799364842
34000000000,-0.825867650391,0.595811509353,-0.00100783647946
34034000000,-0.81734189984,0.597244418473,-0.00100778238744
34068000000,-0.808548315344,0.598654781559,-0.00100776516307
34101000000,-0.800018249221,0.599959988385,-0.00100776779844
34134000000,-0.791471567064,0.601210238241,-0.00100776896673
34167000000,-0.782655494772,0.602439772261,-0.00100789674296
34201000000,-0.774092658597,0.603576655606,-0.00100800808094
34233000000,-0.765526174345,0.604658912496,-0.00100800460859
34269000000,-0.756723906974,0.605715001006,-0.00100726981835
34301000000,-0.748532101301,0.606640090566,-0.0010078258782
34334000000,-0.740640311162,0.607472251679,-0.00100777974372
34368000000,-0.732474564633,0.608298975352,-0.00100719732443
34401000000,-0.724536827218,0.609071127166,-0.0010076624337
34434000000,-0.716617426749,0.609836011364,-0.00100766221131
34468000000,-0.707891284493,0.610651042741,-0.00100754726089
34501000000,-0.699334878647,0.611407957642,-0.00100792434767
34534000000,-0.690765867638,0.612132293165,-0.00100774401743
34568000000,-0.681917015459,0.612845052066,-0.00100808902777
34600000000,-0.673318396381,0.613499051225,-0.00100814571538
34633000000,-0.664718381605,0.614108212106,-0.00100807379039
34667000000,-0.655887177356,0.614688273338,-0.00100730762377
34700000000,-0.64721584456,0.615222892085,-0.00100780743492
34734000000,-0.638643322449,0.615767938233,-0.00100772334627
34767000000,-0.629865109201,0.616363566924,-0.00100756907309
34800000000,-0.621805491344,0.616945032768,-0.00100763486494
34833000000,-0.613824279427,0.617559387362,-0.00100765261308
34868000000,-0.605493456753,0.618238489244,-0.00100779229584
34901000000,-0.597629809137,0.618918746023,-0.00100681440934
34934000000,-0.589617223388,0.619647414748,-0.00100804062921
34968000000,-0.580981511946,0.620429510388,-0.00100766836615
35000000000,-0.572383328991,0.621167263238,-0.00100813124628
35033000000,-0.563784692213,0.621859018439,-0.00100815204268
35068000000,-0.554936951885,0.622523155787,-0.0010077928294
35102000000,-0.546356774771,0.623126932212,-0.00100786161597
35133000000,-0.537765534235,0.623697875971,-0.0010078413081
35167000000,-0.528910401691,0.624251088567,-0.00100761205651
35201000000,-0.52032280639,0.624758681276,-0.00100752200649
35233000000,-0.511731591686,0.625244779518,-0.00100755159514
35268000000,-0.502876218249,0.625723067528,-0.00100767561498
35300000000,-0.494656238778,0.626151288465,-0.00100676182824
35335000000,-0.486712608781,0.626571906445,-0.00100803205279
35368000000,-0.478272806401,0.627030360458,-0.00100711752784
35400000000,-0.469722843491,0.627486621136,-0.00100813761859
35434000000,-0.461142276351,0.62793026291,-0.00100818554053
35468000000,-0.452321903568,0.628372698642,-0.0010077146548
35500000000,-0.443754150777,0.628797014357,-0.00100756732734
35533000000,-0.435202370676,0.629232070615,-0.00100782837874
35569000000,-0.426391294577,0.629692744263,-0.00100760691968
35600000000,-0.418178655083,0.630133398967,-0.00100750924127
35633000000,-0.410054271843,0.630579039245,-0.00100753800326
35667000000,-0.401680249507,0.631048072148,-0.00100756865854
35700000000,-0.39358450975,0.63151589342,-0.00100775197504
35733000000,-0.385485091441,0.632004616791,-0.00100782361389
35768000000,-0.377144468865,0.632529935982,-0.00100799601866
35801000000,-0.368827015667,0.633071748231,-0.00100735933314
35833000000,-0.360284462504,0.633642788132,-0.00100783286507
35868000000,-0.351483034869,0.634251334333,-0.0010079227672
35902000000,-0.342969304144,0.634861066233,-0.00100739967169
35934000000,-0.334442262345,0.635493302521,-0.0010078809234
35967000000,-0.325655522507,0.636167103397,-0.00100776040187
36001000000,-0.317427907097,0.636816285874,-0.00100760025053
36033000000,-0.309327790105,0.6374689338,-0.00100757478002
36067000000,-0.300985010431,0.638161514921,-0.0010076708966
36100000000,-0.29289712223,0.638850145643,-0.00100762681005
36134000000,-0.284809324597,0.639553253484,-0.00100780236415
36167000000,-0.276483324653,0.640291664094,-0.00100777189189
36200000000,-0.2681365726,0.641042840193,-0.00100700690126
36234000000,-0.259598414689,0.641818016334,-0.00100779000174
36268000000,-0.250805111716,0.642628869141,-0.00100785043399
36300000000,-0.242278297008,0.643427814523,-0.00100782013947
36333000000,-0.233778358985,0.644236036181,-0.00100757601927
36367000000,-0.224993253892,0.645083264527,-0.00100788159693
36400000000,-0.216466245884,0.645916186274,-0.0010077166798
36434000000,-0.207937010597,0.646758658342,-0.00100763649532
36468000000,-0.199146251294,0.647636674051,-0.00100760214113
36500000000,-0.190611818118,0.648497717227,-0.00100767278025
36533000000,-0.182077675348,0.649366539202,-0.00100782043132
36567000000,-0.173289642948,0.650268221389,-0.00100774362445
36601000000,-0.164762854123,0.651150872996,-0.00100775161038
36633000000,-0.156235870115,0.652042586411,-0.00100780123917
36667000000,-0.147451332144,0.652970724174,-0.00100786543396
36700000000,-0.139143806037,0.653854075592,-0.00100758110168
36735000000,-0.130964460791,0.654721275094,-0.0010078547336
36768000000,-0.122429663064,0.655636323236,-0.00100700860025
36801000000,-0.113933537673,0.656558005963,-0.00100778362957
36833000000,-0.105408827263,0.657488045038,-0.00100764451494
36868000000,-0.0966235501408,0.658451978471,-0.00100765535982
36901000000,-0.0880932061995,0.659399662351,-0.00100753722584
36933000000,-0.0795851984995,0.660369690823,-0.00100793329715
36968000000,-0.0708347153761,0.661394502448,-0.00100783353582
37000000000,-0.0622797586136,0.662413422913,-0.00100781286092
37033000000,-0.0537565579614,0.663427061917,-0.0010079404416
37068000000,-0.0449770265079,0.664470793889,-0.00100800328805
37100000000,-0.0366852535295,0.665452876819,-0.00100698088224
37133000000,-0.0285254451133,0.66641085918,-0.00100787018283
37168000000,-0.0202884557072,0.66737698629,-0.00100783223149
37201000000,-0.0122215584805,0.668336416075,-0.00100761513553
37234000000,-0.00415745179481,0.66931301001,-0.00100773176045
37267000000,0.00413124951828,0.670339342116,-0.00100774617803
37301000000,0.0118638860091,0.67132180426,-0.00100682824859
37333000000,0.019300043863,0.672303193954,-0.00100679009729
37367000000,0.026905675498,0.673347707904,-0.00100789390903
37401000000,0.0341404783847,0.674376055392,-0.00100791949721
37433000000,0.0411828892587,0.675400456718,-0.00100774941174
37467000000,0.0483678884909,0.676461711713,-0.00100784222432
37500000000,0.0553381498615,0.677503526071,-0.00100765198556
37533000000,0.0623086990745,0.678557516418,-0.00100769552353
37567000000,0.0694884581645,0.679656036807,-0.00100780761423
37600000000,0.0762606840536,0.680701037245,-0.00100786009175
37633000000,0.0828957517371,0.681726502366,-0.00100787661214
37667000000,0.0895467155715,0.682763648711,-0.00100794213014
37700000000,0.095637093079,0.683724228004,-0.00100738045812
37734000000,0.101056416061,0.684585469499,-0.00100728818956
37767000000,0.105929453267,0.685368263938,-0.00100723098526
37800000000,0.109974084391,0.686032258341,-0.0010071972424
37833000000,0.113356949404,0.686605391,-0.00100718796895
37867000000,0.116157095246,0.6871008684,-0.00100718618363
37900000000,0.118213301822,0.687485535582,-0.00100714690461
37933000000,0.119755872077,0.687792827263,-0.00100703819831
37967000000,0.121056373319,0.688066483063,-0.00100703297641
38000000000,0.12227453569,0.688333894015,-0.00100659399147
38034000000,0.123852826009,0.688683939165,-0.00100760344547
38067000000,0.126023137726,0.689165316452,-0.00100765035667
38100000000,0.12863508722,0.689737523641,-0.00100770397775
38133000000,0.131715150171,0.690389115225,-0.00100668985837
38167000000,0.135246643147,0.691095393745,-0.00100680910686
38200000000,0.138553574806,0.691721129024,-0.0010068195531
38233000000,0.141637405583,0.692290102856,-0.00100762163359
38268000000,0.144305364392,0.692785166413,-0.00100785079121
38300000000,0.146885507538,0.693272738016,-0.00100695418683
38333000000,0.150203448447,0.69390531537,-0.00100703555423
38367000000,0.154416780648,0.694711187925,-0.00100705020709
38401000000,0.159227701352,0.695635027626,-0.00100760535803
38433000000,0.164259630189,0.696609850953,-0.00100771748939
38467000000,0.169225130678,0.697581100326,-0.00100768710012
38500000000,0.174006180467,0.698526266773,-0.00100758886733
38534000000,0.178786785166,0.699481869537,-0.0010076780854
38567000000,0.183709714779,0.70047649432,-0.00100780039495
38601000000,0.188409467938,0.701435607694,-0.00100818900367
38633000000,0.193054489193,0.702392618523,-0.00100746905798
38667000000,0.197591621738,0.703333976157,-0.00100793250657
38701000000,0.201577954353,0.704164691794,-0.00100736175972
38734000000,0.205083798369,0.704894757435,-0.00100732972376
38768000000,0.208201833387,0.705541645886,-0.00100731698837
38800000000,0.210761008813,0.706066290834,-0.00100776850162
38834000000,0.213143036725,0.706553684943,-0.00100834867123
38867000000,0.215885822798,0.707121611963,-0.00100747850946
38900000000,0.218875345262,0.707749016093,-0.00100756031331
38935000000,0.222170211792,0.708439404349,-0.00100652290755
38967000000,0.225926798661,0.709214622565,-0.00100689893114
39000000000,0.229869041019,0.710007720232,-0.00100689105044
39033000000,0.234035959865,0.71082781411,-0.00100685351343
39070000000,0.238646511003,0.71172438047,-0.00100684598074
39101000000,0.243142513682,0.712602788386,-0.00100747008399
39133000000,0.247585295259,0.713487185682,-0.00100742506573
39167000000,0.252160965319,0.714415438988,-0.00100740612064
39200000000,0.256721853361,0.715357567266,-0.0010074151697
39233000000,0.261289834418,0.716316883497,-0.0010074518589
39267000000,0.265994629935,0.717321395983,-0.00100752502047
39300000000,0.270586434649,0.718320600187,-0.00100762855541
39333000000,0.275178485681,0.719342101398,-0.00100776627935
39368000000,0.279905952916,0.720417019232,-0.00100793041898
39401000000,0.284508584466,0.721482835876,-0.0010080657606
39433000000,0.289117935436,0.72256345087,-0.00100819740346
39468000000,0.293866299276,0.723690505408,-0.00100808753463
39500000000,0.298473489668,0.724796134196,-0.00100807325432
39534000000,0.3030753212,0.725910276338,-0.0010079360453
39568000000,0.307778967309,0.72706013715,-0.0010077206819
39600000000,0.312307601964,0.728179577793,-0.00100760249937
39633000000,0.316877024956,0.729323069859,-0.00100850981939
39667000000,0.32159887361,0.730521313302,-0.00100820050262
39701000000,0.326118306694,0.731688846038,-0.00100799434108
39734000000,0.330619218179,0.732885443378,-0.00100779870591
39767000000,0.335251193245,0.734156784106,-0.00100764431173
39800000000,0.339717785983,0.735414067101,-0.00100698496733
39833000000,0.344274106664,0.736699103604,-0.0010074351991
39867000000,0.348972858213,0.73802084027,-0.00100742641156
39900000000,0.35353571472,0.739305747108,-0.00100739375589
39933000000,0.358101410709,0.740600104917,-0.00100740110456
39967000000,0.362804855802,0.741942619721,-0.00100744153219
40000000000,0.367342157126,0.743245374987,-0.00100751471464
40034000000,0.371878733887,0.744559428995,-0.00100760801369
40068000000,0.376557360336,0.745936074971,-0.0010077502916
40101000000,0.381086558887,0.747289784403,-0.00100793232189
40133000000,0.385610308513,0.748662714103,-0.00100811180553
40167000000,0.39026435709,0.750096977371,-0.00100826595474
40201000000,0.394687167308,0.751484712459,-0.00100755484873
40234000000,0.39891402477,0.752850269462,-0.00100749710719
40267000000,0.40306471847,0.754238536094,-0.00100751229172
40300000000,0.406775423693,0.755524447903,-0.00100751086303
40333000000,0.410121240534,0.756714709751,-0.0010075057375
40367000000,0.413145489679,0.757815822814,-0.00100750561543
40400000000,0.415665138715,0.758754259803,-0.00100750583998
40434000000,0.417778629592,0.759555593852,-0.00100750598749
40467000000,0.419531618311,0.760229329068,-0.00100750755733
40501000000,0.420818181079,0.760728856439,-0.0010075076337
40533000000,0.421697381718,0.761072507614,-0.0010075009058
40569000000,0.422178096394,0.76126117178,-0.00100749370998
40601000000,0.422455243891,0.761374684595,-0.00100648077919
40633000000,0.422784828437,0.76151123868,-0.00100655286452
40667000000,0.423174429758,0.761673183394,-0.00100664880042
40700000000,0.423586633431,0.761849332124,-0.00100676629359
40734000000,0.423919826658,0.761997751336,-0.00100729008949
40768000000,0.42385110408,0.761959691768,-0.00100761720234
40801000000,0.424027706571,0.76205156993,-0.0010075547456
40833000000,0.424308630221,0.762204970882,-0.00100732856997
40868000000,0.424493102378,0.762314754759,-0.0010074917642
40901000000,0.424660738983,0.762417660667,-0.00100741358104
40933000000,0.424459797283,0.76227610282,-0.00100747100423
40967000000,0.424237545585,0.762109803724,-0.00100749471912
41001000000,0.424031831418,0.761945866824,-0.00100753579384
41034000000,0.423831045921,0.76177588851,-0.00100759830151
41067000000,0.423629317002,0.761594414529,-0.00100769293807
41100000000,0.423438240863,0.761411849063,-0.00100779252607
41133000000,0.423251801777,0.761222850998,-0.00100791619222
41167000000,0.4230645734,0.761021743361,-0.0010080763264
41200000000,0.422887795027,0.760820324467,-0.00100829527648
41233000000,0.42271405783,0.760610621517,-0.00100844737334
41267000000,0.422521904138,0.760364010102,-0.00100761672349
41300000000,0.422350126149,0.760129527341,-0.00100811245365
41335000000,0.422200791326,0.75991259037,-0.00100814123494
41369000000,0.422063128933,0.759698944998,-0.00100801893131
41401000000,0.421944914896,0.759501621274,-0.00100766688082
41433000000,0.421815765414,0.759270924951,-0.00100808562989
41467000000,0.421689732069,0.759029185475,-0.00100801380421
41500000000,0.421575212134,0.758792392304,-0.00100790347565
41534000000,0.421468192088,0.75855326395,-0.00100777659713
41569000000,0.421365477346,0.758303915798,-0.00100764951637
41601000000,0.421273103856,0.758059065177,-0.00100755875157
41633000000,0.421188010019,0.757811561265,-0.00100749433766
41668000000,0.421108006995,0.757553959471,-0.00100745310092
41700000000,0.42106385283,0.757396554073,-0.00100748444459
41733000000,0.421096958528,0.757512980679,-0.00100741950792
41769000000,0.421195740873,0.757892635194,-0.00100758738907
41800000000,0.421261997326,0.758155298882,-0.00100728053398
41833000000,0.421244039416,0.758073664879,-0.00100751362873
41868000000,0.421225756191,0.757986410667,-0.0010075159875
41901000000,0.421312806817,0.758395819501,-0.00100767196699
41934000000,0.421458737283,0.7591107755,-0.00100714828191
41968000000,0.421501809807,0.75932568565,-0.00100749509799
42000000000,0.421502462147,0.759329171174,-0.00100753163637
42034000000,0.421503158371,0.759332731345,-0.00100753164667
42068000000,0.421503875936,0.759336400732,-0.00100753165081
42101000000,0.421504572618,0.759339963501,-0.00100753165886
42135000000,0.421505269518,0.759343527552,-0.00100753167066
42167000000,0.421505987766,0.759347200944,-0.00100753168648
42201000000,0.42150668511,0.759350767594,-0.00100753170518
42234000000,0.421507382671,0.759354335521,-0.00100753172697
42267000000,0.421508101598,0.759358012903,-0.00100753175246
42301000000,0.421508799601,0.759361583422,-0.00100753178
42333000000,0.42150949782,0.759365155217,-0.00100753181009
42368000000,0.421510217424,0.75936883658,-0.00100753184362
42401000000,0.421510916083,0.75937241096,-0.00100753187844
42434000000,0.421511614958,0.759375986613,-0.00100753191537
42467000000,0.421512335236,0.759379671948,-0.0010075319555
42501000000,0.421513034549,0.759383250181,-0.00100753199634
42534000000,0.421513734076,0.759386829683,-0.00100753203893
42568000000,0.421514455027,0.759390518983,-0.00100753208453
42600000000,0.421515154992,0.759394101061,-0.00100753213036
42634000000,0.421515855171,0.759397684408,-0.00100753217763
42667000000,0.421516576792,0.759401377666,-0.00100753222777
42702000000,0.421517277407,0.759404963585,-0.00100753227773
42734000000,0.421517978236,0.759408550771,-0.00100753232889
42768000000,0.421518700527,0.759412247983,-0.00100753238279
42802000000,0.421519401791,0.75941583774,-0.00100753243618
42833000000,0.421520103269,0.759419428762,-0.00100753249057
42867000000,0.421520826227,0.759423129926,-0.00100753254759
42900000000,0.42152152814,0.759426723518,-0.00100753260383
42933000000,0.421522230266,0.759430318374,-0.0010075326609
42967000000,0.421522953892,0.759434023489,-0.00100753272053
43001000000,0.421523656451,0.759437620914,-0.00100753277914
43033000000,0.421524359225,0.759441219604,-0.00100753283845
43067000000,0.421525083518,0.759444928668,-0.00100753290025
43101000000,0.421525786724,0.759448529926,-0.00100753296085
43133000000,0.421526490145,0.759452132449,-0.00100753302203
43167000000,0.421527215104,0.759455845463,-0.00100753308563
43201000000,0.421527918957,0.759459450554,-0.00100753314789
43233000000,0.421528623024,0.759463056911,-0.00100753321063
43267000000,0.421529348649,0.759466773873,-0.00100753327575
43300000000,0.421530053149,0.759470382798,-0.00100753333939
43333000000,0.421530757862,0.759473992987,-0.00100753340344
43367000000,0.421531484152,0.759477713899,-0.00100753346985
43400000000,0.421532189298,0.759481326657,-0.00100753353467
43433000000,0.421532894657,0.759484940679,-0.00100753359985
43468000000,0.421533621612,0.759488665541,-0.00100753366737
43500000000,0.421534327404,0.759492282133,-0.00100753373322
43533000000,0.421535033408,0.759495899992,-0.00100753379936
43568000000,0.421535761029,0.759499628806,-0.00100753386779
43600000000,0.421536467466,0.759503249236,-0.00100753393448
43633000000,0.421537174117,0.759506870932,-0.00100753400142
43668000000,0.421537902404,0.759510603701,-0.00100753407064
43700000000,0.421538609487,0.75951422797,-0.00100753413805
43733000000,0.421539316783,0.759517853505,-0.00100753420567
43767000000,0.421540045736,0.759521590232,-0.00100753427556
43801000000,0.421540753465,0.759525218342,-0.00100753434359
43834000000,0.421541461407,0.75952884772,-0.0010075344118
43867000000,0.421542191025,0.759532588406,-0.00100753448227
43900000000,0.421542899401,0.75953622036,-0.00100753455083
43934000000,0.42154360799,0.759539853584,-0.00100753461956
43967000000,0.421544338274,0.759543598232,-0.00100753469053
44000000000,0.421545047296,0.759547234033,-0.00100753475956
44033000000,0.421545756531,0.759550871104,-0.00100753482873
44068000000,0.421546487481,0.759554619717,-0.00100753490014
44100000000,0.42154719715,0.759558259367,-0.00100753496959
44134000000,0.421547907032,0.759561900289,-0.00100753503915
44168000000,0.421548638649,0.75956565287,-0.00100753511095
44200000000,0.421549348964,0.759569296372,-0.00100753518074
44234000000,0.421550059493,0.759572941145,-0.00100753525065
44268000000,0.421550791776,0.759576697696,-0.0010075353228
44300000000,0.421551502738,0.759580345051,-0.00100753539293
44334000000,0.421552213914,0.759583993677,-0.00100753546317
44368000000,0.421552946863,0.759587754199,-0.00100753553563
44400000000,0.421553658472,0.759591405409,-0.00100753560606
44434000000,0.421554370294,0.759595057891,-0.00100753567658
44468000000,0.42155510391,0.759598822387,-0.00100753574933
44500000000,0.421555816166,0.759602477455,-0.00100753582003
44533000000,0.421556528636,0.759606133797,-0.00100753589081
44568000000,0.421557262919,0.75960990227,-0.00100753596382
44601000000,0.421557975822,0.759613561199,-0.00100753603477
44633000000,0.421558688939,0.759617221404,-0.00100753610579
44667000000,0.421559423889,0.759620993857,-0.00100753617904
44700000000,0.42156013744,0.759624656651,-0.00100753625022
44733000000,0.421560851205,0.759628320721,-0.00100753632147
44767000000,0.421561586823,0.759632097158,-0.00100753639495
44800000000,0.421562301022,0.75963576382,-0.00100753646634
44833000000,0.421563015435,0.759639431758,-0.0010075365378
44868000000,0.42156375172,0.759643212182,-0.00100753661149
44900000000,0.421564466567,0.759646882715,-0.00100753668308
44934000000,0.421565181629,0.759650554525,-0.00100753675474
44968000000,0.421565918583,0.75965433894,-0.00100753682864
45000000000,0.421566634078,0.759658013347,-0.00100753690043
45034000000,0.421567349789,0.759661689032,-0.00100753697228
45067000000,0.421568087411,0.759665477441,-0.00100753704637
45100000000,0.421568803556,0.759669155725,-0.00100753711834
45133000000,0.421569519915,0.759672835288,-0.00100753719037
45167000000,0.421570258205,0.759676627692,-0.00100753726465
45201000000,0.421570974999,0.759680309853,-0.00100753733681
45233000000,0.421571692007,0.759683993295,-0.00100753740902
45268000000,0.421572430966,0.759687789696,-0.00100753748348
45300000000,0.421573148409,0.759691475738,-0.00100753755581
45334000000,0.421573866066,0.759695163062,-0.0010075376282
45367000000,0.421574605694,0.759698963463,-0.00100753770284
45400000000,0.421575323786,0.75970265339,-0.00100753777534
45434000000,0.421576042092,0.759706344598,-0.0010075378479
45468000000,0.421576782389,0.759710149003,-0.00100753792271
45500000000,0.421577501131,0.759713842817,-0.00100753799538
45534000000,0.421578220087,0.759717537914,-0.0010075380681
45568000000,0.421578961054,0.759721346327,-0.00100753814308
45601000000,0.421579680445,0.759725044031,-0.00100753821591
45634000000,0.421580400051,0.759728743019,-0.0010075382888
45668000000,0.421581141688,0.759732555443,-0.00100753836395
45701000000,0.42158186173,0.75973625704,-0.00100753843694
45733000000,0.421582581986,0.759739959924,-0.00100753850999
45767000000,0.421583324293,0.759743776361,-0.00100753858531
45800000000,0.421584044986,0.759747481857,-0.00100753865846
45834000000,0.421584765893,0.759751188638,-0.00100753873167
45867000000,0.42158550887,0.759755009093,-0.00100753880715
45901000000,0.421586230214,0.759758718489,-0.00100753888046
45934000000,0.421586951772,0.759762429172,-0.00100753895383
45968000000,0.421587695421,0.759766253648,-0.00100753902947
46000000000,0.421588417415,0.759769966947,-0.00100753910294
46033000000,0.421589139625,0.759773681535,-0.00100753917646
46067000000,0.421589883944,0.759777510034,-0.00100753925226
46101000000,0.42159060659,0.759781227238,-0.00100753932589
46133000000,0.421591329451,0.759784945731,-0.00100753939957
46167000000,0.421592074441,0.759788778254,-0.00100753947554
46201000000,0.421592797738,0.759792499365,-0.00100753954932
46233000000,0.421593521251,0.759796221767,-0.00100753962315
46267000000,0.421594266912,0.759800058317,-0.00100753969928
46300000000,0.421594990861,0.759803783339,-0.00100753977322
46334000000,0.421595715025,0.759807509652,-0.00100753984721
46368000000,0.421596461358,0.759811350234,-0.0010075399235
46400000000,0.421597185959,0.759815079169,-0.00100753999759
46433000000,0.421597910775,0.759818809396,-0.00100754007174
46469000000,0.42159865778,0.759822654013,-0.00100754014818
46500000000,0.421599383033,0.759826386865,-0.00100754022243
46533000000,0.421600108501,0.759830121011,-0.00100754029673
46567000000,0.421600856179,0.759833969666,-0.00100754037334
46600000000,0.421601582085,0.759837706438,-0.00100754044774